unique_key,year,month,day,created_date,closed_date,number_of_days_to_close,duration,number_of_past_due_days,complaint_type,descriptors,location_type,zip,adress,city,facility_type,status,status_cal,due_date,community_board,borough,latitude,longitude,location,complaint_type_cal
45721190,2020,2,29,2020-02-29 06:11:47,,,795,326,Graffiti,Graffiti,Mixed Use,10012,89 EAST HOUSTON STREET,NEW YORK,N/A,Open,Open,2021-06-12 09:40:37,102,MANHATTAN,40.72421592259648,-73.99285663029694,"(40.72421592259648, -73.99285663029694)",Graffiti
45721259,2020,2,29,2020-02-29 10:41:18,,,795,326,Graffiti,Graffiti,Residential,10473,421 LELAND AVENUE,BRONX,N/A,Open,Open,2021-06-12 09:40:37,209,BRONX,40.81384212851133,-73.85931364029899,"(40.81384212851133, -73.85931364029899)",Graffiti
45372281,2020,1,12,2020-01-12 18:51:32,,,842,809,Graffiti,Graffiti,Comercial,10314,2187 RICHMOND AVENUE,STATEN ISLAND,N/A,Open,Open,2020-02-15 10:45:07,502,STATEN ISLAND,40.593826181570854,-74.16221602170222,"(40.593826181570854, -74.16221602170222)",Graffiti
45372743,2020,1,12,2020-01-12 11:04:16,,,843,326,Graffiti,Graffiti,Comercial,11229,1411 KINGS HIGHWAY,BROOKLYN,N/A,Open,Open,2021-06-12 09:40:37,315,BROOKLYN,40.60847254299319,-73.9589680228232,"(40.60847254299319, -73.9589680228232)",Graffiti
45373478,2020,1,12,2020-01-12 09:59:37,,,843,794,Graffiti,Graffiti,Comercial,10013,511 GREENWICH STREET,NEW YORK,N/A,Open,Open,2020-02-29 15:53:21,102,MANHATTAN,40.72578578439657,-74.00911703054645,"(40.72578578439657, -74.00911703054645)",Graffiti
45373915,2020,1,12,2020-01-12 13:34:09,,,842,794,Graffiti,Graffiti,Residential,10003,55 EAST    7 STREET,NEW YORK,N/A,Open,Open,2020-02-29 15:53:21,103,MANHATTAN,40.72769855576269,-73.98744072247027,"(40.72769855576269, -73.98744072247027)",Graffiti
45374096,2020,1,12,2020-01-12 12:13:16,,,842,794,Graffiti,Graffiti,Residential,10024,177 WEST   88 STREET,NEW YORK,N/A,Open,Open,2020-02-29 15:53:21,107,MANHATTAN,40.78862944520995,-73.97318644668717,"(40.78862944520995, -73.97318644668717)",Graffiti
45322334,2020,1,6,2020-01-06 11:53:27,,,849,38,Graffiti,Graffiti,Comercial,10016,103 EAST   29 STREET,NEW YORK,N/A,Open,Open,2022-03-27 11:52:29,105,MANHATTAN,40.74378501722401,-73.98322258564748,"(40.74378501722401, -73.98322258564748)",Graffiti
45375769,2020,1,13,2020-01-13 17:07:45,,,841,794,Graffiti,Graffiti,Mixed Use,11230,1312 AVENUE H,BROOKLYN,N/A,Open,Open,2020-02-29 15:53:21,314,BROOKLYN,40.629754582053636,-73.9639302067451,"(40.629754582053636, -73.9639302067451)",Graffiti
45375921,2020,1,13,2020-01-13 10:51:11,,,842,794,Graffiti,Graffiti,,11206,143 MESEROLE STREET,BROOKLYN,N/A,Open,Open,2020-02-29 15:53:21,301,BROOKLYN,40.70803303960554,-73.9437974888505,"(40.70803303960554, -73.9437974888505)",Graffiti
45397093,2020,1,15,2020-01-15 16:39:14,,,839,794,Graffiti,Graffiti,Comercial,11233,17 SARATOGA AVENUE,BROOKLYN,N/A,Open,Open,2020-02-29 15:53:21,316,BROOKLYN,40.68641887924086,-73.91787256096256,"(40.68641887924086, -73.91787256096256)",Graffiti
45398662,2020,1,15,2020-01-15 12:21:43,,,839,794,Graffiti,Graffiti,Mixed Use,10011,520 WEST   23 STREET,NEW YORK,N/A,Open,Open,2020-02-29 15:53:21,104,MANHATTAN,40.748128313667664,-74.0052331333004,"(40.748128313667664, -74.0052331333004)",Graffiti
45401888,2020,1,16,2020-01-16 23:03:51,,,838,794,Graffiti,Graffiti,Residential,11434,177-75 MEADOW ROAD,Jamaica,N/A,Open,Open,2020-02-29 15:53:21,413,QUEENS,40.666450793150915,-73.76882708407125,"(40.666450793150915, -73.76882708407125)",Graffiti
45402192,2020,1,16,2020-01-16 12:24:23,,,838,794,Graffiti,Graffiti,Comercial,10454,511 EAST  141 STREET,BRONX,N/A,Open,Open,2020-02-29 15:53:21,201,BRONX,40.80946590713156,-73.91776407855413,"(40.80946590713156, -73.91776407855413)",Graffiti
45402708,2020,1,16,2020-01-16 14:55:21,,,838,794,Graffiti,Graffiti,Mixed Use,11230,1302 AVENUE H,BROOKLYN,N/A,Open,Open,2020-02-29 15:53:21,314,BROOKLYN,40.629746368012924,-73.96399505899066,"(40.629746368012924, -73.96399505899066)",Graffiti
45404236,2020,1,16,2020-01-16 17:42:37,,,838,794,Graffiti,Graffiti,Residential,11221,103 MALCOM X BOULEVARD,BROOKLYN,N/A,Open,Open,2020-02-29 15:53:21,303,BROOKLYN,40.690140862881144,-73.93048148509271,"(40.690140862881144, -73.93048148509271)",Graffiti
45406795,2020,1,16,2020-01-16 10:06:20,,,839,794,Graffiti,Graffiti,Mixed Use,11230,1510 AVENUE H,BROOKLYN,N/A,Open,Open,2020-02-29 15:53:21,314,BROOKLYN,40.62997905531914,-73.96206750582316,"(40.62997905531914, -73.96206750582316)",Graffiti
45386989,2020,1,14,2020-01-14 16:01:23,,,840,794,Graffiti,Graffiti,Comercial,11433,108-19 MERRICK BOULEVARD,Jamaica,N/A,Open,Open,2020-02-29 15:53:21,412,QUEENS,40.698120842332294,-73.78625861479364,"(40.698120842332294, -73.78625861479364)",Graffiti
45388393,2020,1,14,2020-01-14 08:35:10,,,841,326,Graffiti,Graffiti,Mixed Use,10012,280 LAFAYETTE STREET,NEW YORK,N/A,Open,Open,2021-06-12 09:40:37,102,MANHATTAN,40.72407335304461,-73.99616856444977,"(40.72407335304461, -73.99616856444977)",Graffiti
45390157,2020,1,14,2020-01-14 16:02:02,,,840,794,Graffiti,Graffiti,Comercial,11433,108-23 MERRICK BOULEVARD,Jamaica,N/A,Open,Open,2020-02-29 15:53:21,412,QUEENS,40.698076738620976,-73.7861577781454,"(40.698076738620976, -73.7861577781454)",Graffiti
45390186,2020,1,14,2020-01-14 12:02:00,,,840,794,Graffiti,Graffiti,Comercial,11206,43 GEORGE STREET,BROOKLYN,N/A,Open,Open,2020-02-29 15:53:21,304,BROOKLYN,40.7011453850555,-73.93172507706095,"(40.7011453850555, -73.93172507706095)",Graffiti
45392565,2020,1,16,2020-01-16 00:36:53,,,839,794,Graffiti,Graffiti,,10466,4184 WHITE PLAINS ROAD,BRONX,N/A,Open,Open,2020-02-29 15:53:21,212,BRONX,40.893060405593964,-73.85754729589182,"(40.893060405593964, -73.85754729589182)",Graffiti
45392606,2020,1,15,2020-01-15 09:03:58,,,840,794,Graffiti,Graffiti,Mixed Use,10029,1938 3 AVENUE,NEW YORK,N/A,Open,Open,2020-02-29 15:53:21,111,MANHATTAN,40.79200613714788,-73.94436943490578,"(40.79200613714788, -73.94436943490578)",Graffiti
45392608,2020,1,15,2020-01-15 08:44:25,,,840,326,Graffiti,Graffiti,Mixed Use,10016,200 EAST   28 STREET,NEW YORK,N/A,Open,Open,2021-06-12 09:40:37,106,MANHATTAN,40.7419044723348,-73.98072582469678,"(40.7419044723348, -73.98072582469678)",Graffiti
45393619,2020,1,15,2020-01-15 08:44:10,,,840,794,Graffiti,Graffiti,Mixed Use,10029,1964 3 AVENUE,NEW YORK,N/A,Open,Open,2020-02-29 15:53:21,111,MANHATTAN,40.792782620582706,-73.94380178386822,"(40.792782620582706, -73.94380178386822)",Graffiti
45394651,2020,1,15,2020-01-15 21:37:40,,,839,794,Graffiti,Graffiti,Mixed Use,11230,1501 FOSTER AVENUE,BROOKLYN,N/A,Open,Open,2020-02-29 15:53:21,314,BROOKLYN,40.63408831989589,-73.96303795045536,"(40.63408831989589, -73.96303795045536)",Graffiti
45395629,2020,1,15,2020-01-15 21:19:35,,,839,794,Graffiti,Graffiti,Mixed Use,11377,41-19 58 STREET,Woodside,N/A,Open,Open,2020-02-29 15:53:21,402,QUEENS,40.743987450236645,-73.90695704671255,"(40.743987450236645, -73.90695704671255)",Graffiti
45395631,2020,1,15,2020-01-15 13:49:45,,,839,794,Graffiti,Graffiti,Mixed Use,11230,1068 CONEY ISLAND AVENUE,BROOKLYN,N/A,Open,Open,2020-02-29 15:53:21,314,BROOKLYN,40.63138852099155,-73.96654131341818,"(40.63138852099155, -73.96654131341818)",Graffiti
45422446,2020,1,18,2020-01-18 15:40:59,,,836,794,Graffiti,Graffiti,Residential,10468,2430 MORRIS AVENUE,BRONX,N/A,Open,Open,2020-02-29 15:53:21,205,BRONX,40.86114319606984,-73.90017734036678,"(40.86114319606984, -73.90017734036678)",Graffiti
45422865,2020,1,18,2020-01-18 16:20:09,,,836,794,Graffiti,Graffiti,Comercial,11205,25 WAVERLY AVENUE,BROOKLYN,N/A,Open,Open,2020-02-29 15:53:21,302,BROOKLYN,40.696945382005616,-73.96857121006713,"(40.696945382005616, -73.96857121006713)",Graffiti
45424475,2020,1,19,2020-01-19 02:35:16,,,836,794,Graffiti,Graffiti,Mixed Use,11213,184 BUFFALO AVENUE,BROOKLYN,N/A,Open,Open,2020-02-29 15:53:21,308,BROOKLYN,40.6728180175905,-73.92518219076628,"(40.6728180175905, -73.92518219076628)",Graffiti
45429389,2020,1,20,2020-01-20 19:11:14,,,834,794,Graffiti,Graffiti,Mixed Use,11221,1099 BROADWAY,BROOKLYN,N/A,Open,Open,2020-02-29 15:53:21,304,BROOKLYN,40.69419201638531,-73.93027171115563,"(40.69419201638531, -73.93027171115563)",Graffiti
45429545,2020,1,20,2020-01-20 14:55:11,,,834,809,Graffiti,Graffiti,Comercial,11101,35-09 NORTHERN BOULEVARD,Long Island City,N/A,Open,Open,2020-02-15 11:03:11,401,QUEENS,40.75205323153398,-73.92856892774526,"(40.75205323153398, -73.92856892774526)",Graffiti
45431436,2020,1,20,2020-01-20 17:29:37,,,834,794,Graffiti,Graffiti,Comercial,11208,800 JAMAICA AVENUE,BROOKLYN,N/A,Open,Open,2020-02-29 15:53:21,305,BROOKLYN,40.68886158915922,-73.87501760565398,"(40.68886158915922, -73.87501760565398)",Graffiti
45431437,2020,1,20,2020-01-20 07:17:50,,,835,794,Graffiti,Graffiti,Comercial,10451,860 MELROSE AVENUE,BRONX,N/A,Open,Open,2020-02-29 15:53:21,203,BRONX,40.82360681260819,-73.91414067629628,"(40.82360681260819, -73.91414067629628)",Graffiti
45432745,2020,1,20,2020-01-20 19:08:56,,,834,794,Graffiti,Graffiti,Comercial,11214,8160 NEW UTRECHT AVENUE,BROOKLYN,N/A,Open,Open,2020-02-29 15:53:21,311,BROOKLYN,40.60998949271755,-74.00162431681991,"(40.60998949271755, -74.00162431681991)",Graffiti
45433076,2020,1,20,2020-01-20 14:55:54,,,834,794,Graffiti,Graffiti,Comercial,11101,37-15 35 STREET,Long Island City,N/A,Open,Open,2020-02-29 15:53:21,401,QUEENS,40.752988992439825,-73.92825030398441,"(40.752988992439825, -73.92825030398441)",Graffiti
45434085,2020,1,20,2020-01-20 14:49:41,,,834,794,Graffiti,Graffiti,Comercial,11101,33-16 38 AVENUE,Long Island City,N/A,Open,Open,2020-02-29 15:53:21,401,QUEENS,40.75285025821544,-73.9302824974492,"(40.75285025821544, -73.9302824974492)",Graffiti
45434869,2020,1,21,2020-01-21 13:51:01,,,833,,Graffiti,Graffiti,Residential,11221,1573 BUSHWICK    2 (GROUP E) HOUSES,BROOKLYN,N/A,Open,Open,,304,BROOKLYN,40.69672466172832,-73.9167166763504,"(40.69672466172832, -73.9167166763504)",Graffiti
45434895,2020,1,21,2020-01-21 13:30:39,,,833,794,Graffiti,Graffiti,,11222,240 KENT STREET,BROOKLYN,N/A,Open,Open,2020-02-29 15:53:21,301,BROOKLYN,40.73125137313384,-73.9506838936803,"(40.73125137313384, -73.9506838936803)",Graffiti
45434901,2020,1,21,2020-01-21 13:03:40,,,833,794,Graffiti,Graffiti,Mixed Use,11212,4 SUTTER AVENUE,BROOKLYN,N/A,Open,Open,2020-02-29 15:53:21,316,BROOKLYN,40.6652464652951,-73.92297747484385,"(40.6652464652951, -73.92297747484385)",Graffiti
45434902,2020,1,21,2020-01-21 12:48:31,,,833,794,Graffiti,Graffiti,Mixed Use,11207,656 SUTTER AVENUE,BROOKLYN,N/A,Open,Open,2020-02-29 15:53:21,305,BROOKLYN,40.66945912925658,-73.89456676558822,"(40.66945912925658, -73.89456676558822)",Graffiti
45434903,2020,1,21,2020-01-21 10:08:05,,,834,794,Graffiti,Graffiti,Mixed Use,11221,1076 DEKALB AVENUE,BROOKLYN,N/A,Open,Open,2020-02-29 15:53:21,303,BROOKLYN,40.69362471653253,-73.93171835386485,"(40.69362471653253, -73.93171835386485)",Graffiti
45434906,2020,1,21,2020-01-21 10:04:19,,,834,794,Graffiti,Graffiti,,11237,22 WYCKOFF AVENUE,BROOKLYN,N/A,Open,Open,2020-02-29 15:53:21,304,BROOKLYN,40.70640957217932,-73.92261612218132,"(40.70640957217932, -73.92261612218132)",Graffiti
45434908,2020,1,21,2020-01-21 09:18:13,,,834,,Graffiti,Graffiti,,11207,2769 FULTON STREET,BROOKLYN,N/A,Open,Open,,305,BROOKLYN,40.67794390821747,-73.89232890499864,"(40.67794390821747, -73.89232890499864)",Graffiti
45434909,2020,1,21,2020-01-21 13:48:50,,,833,794,Graffiti,Graffiti,Mixed Use,11207,586 LIVONIA AVENUE,BROOKLYN,N/A,Open,Open,2020-02-29 15:53:21,305,BROOKLYN,40.664516679638666,-73.8955514070442,"(40.664516679638666, -73.8955514070442)",Graffiti
45434912,2020,1,21,2020-01-21 10:57:46,,,834,794,Graffiti,Graffiti,Mixed Use,11207,590 WILLIAMS AVENUE,BROOKLYN,N/A,Open,Open,2020-02-29 15:53:21,305,BROOKLYN,40.66143839812184,-73.89706285353694,"(40.66143839812184, -73.89706285353694)",Graffiti
45434913,2020,1,21,2020-01-21 10:53:42,,,834,794,Graffiti,Graffiti,Mixed Use,11212,9605 CHURCH AVENUE,BROOKLYN,N/A,Open,Open,2020-02-29 15:53:21,317,BROOKLYN,40.655799036450844,-73.91531893407193,"(40.655799036450844, -73.91531893407193)",Graffiti
45434910,2020,1,21,2020-01-21 13:03:00,,,833,326,Graffiti,Graffiti,Mixed Use,11233,78 SARATOGA AVENUE,BROOKLYN,N/A,Open,Open,2021-06-12 09:40:37,303,BROOKLYN,40.68419806088234,-73.91745704663619,"(40.68419806088234, -73.91745704663619)",Graffiti
45434911,2020,1,21,2020-01-21 12:39:22,,,833,326,Graffiti,Graffiti,Mixed Use,11207,1638 BROADWAY,BROOKLYN,N/A,Open,Open,2021-06-12 09:40:37,316,BROOKLYN,40.68488168881458,-73.91395512782938,"(40.68488168881458, -73.91395512782938)",Graffiti
45434915,2020,1,21,2020-01-21 09:51:25,,,834,794,Graffiti,Graffiti,Mixed Use,11237,259 WYCKOFF AVENUE,BROOKLYN,N/A,Open,Open,2020-02-29 15:53:21,304,BROOKLYN,40.701290137206776,-73.91424050432359,"(40.701290137206776, -73.91424050432359)",Graffiti
45434918,2020,1,21,2020-01-21 13:29:19,,,833,794,Graffiti,Graffiti,Mixed Use,11207,627 SUTTER AVENUE,BROOKLYN,N/A,Open,Open,2020-02-29 15:53:21,305,BROOKLYN,40.6693119235856,-73.895677275223,"(40.6693119235856, -73.895677275223)",Graffiti
45434922,2020,1,21,2020-01-21 09:48:59,,,834,794,Graffiti,Graffiti,Mixed Use,11212,1167 WILLMOHR STREET,BROOKLYN,N/A,Open,Open,2020-02-29 15:53:21,317,BROOKLYN,40.65831903514073,-73.91571219723203,"(40.65831903514073, -73.91571219723203)",Graffiti
45434925,2020,1,21,2020-01-21 09:02:44,,,834,794,Graffiti,Graffiti,Mixed Use,11205,147 PARK AVENUE,BROOKLYN,N/A,Open,Open,2020-02-29 15:53:21,302,BROOKLYN,40.69625772903815,-73.97368880265962,"(40.69625772903815, -73.97368880265962)",Graffiti
45434926,2020,1,21,2020-01-21 12:45:24,,,833,,Graffiti,Graffiti,,11236,8815 AVENUE L,BROOKLYN,N/A,Open,Open,,318,BROOKLYN,40.63447503329078,-73.90180984943726,"(40.63447503329078, -73.90180984943726)",Graffiti
45434931,2020,1,21,2020-01-21 09:09:16,,,834,794,Graffiti,Graffiti,Mixed Use,11205,284 WILLOUGHBY AVENUE,BROOKLYN,N/A,Open,Open,2020-02-29 15:53:21,303,BROOKLYN,40.69253726885699,-73.95971322637483,"(40.69253726885699, -73.95971322637483)",Graffiti
45434930,2020,1,21,2020-01-21 09:51:32,,,834,326,Graffiti,Graffiti,Mixed Use,11208,3457 FULTON STREET,BROOKLYN,N/A,Open,Open,2021-06-12 09:40:37,305,BROOKLYN,40.684827279213955,-73.86809513603811,"(40.684827279213955, -73.86809513603811)",Graffiti
45435690,2020,1,21,2020-01-21 10:43:00,,,834,794,Graffiti,Graffiti,Comercial,11203,4905 CHURCH AVENUE,BROOKLYN,N/A,Open,Open,2020-02-29 15:53:21,317,BROOKLYN,40.65170618811376,-73.93120986806053,"(40.65170618811376, -73.93120986806053)",Graffiti
45435702,2020,1,21,2020-01-21 10:40:04,,,834,794,Graffiti,Graffiti,Comercial,11203,4615 CHURCH AVENUE,BROOKLYN,N/A,Open,Open,2020-02-29 15:53:21,317,BROOKLYN,40.651581579216376,-73.93402819609666,"(40.651581579216376, -73.93402819609666)",Graffiti
45435703,2020,1,21,2020-01-21 11:05:25,,,834,794,Graffiti,Graffiti,Comercial,11232,863 THIRD AVENUE,BROOKLYN,N/A,Open,Open,2020-02-29 15:53:21,307,BROOKLYN,40.658004011191984,-74.00383124507988,"(40.658004011191984, -74.00383124507988)",Graffiti
45435859,2020,1,21,2020-01-21 10:09:01,,,834,794,Graffiti,Graffiti,Residential,11221,970 DEKALB AVENUE,BROOKLYN,N/A,Open,Open,2020-02-29 15:53:21,303,BROOKLYN,40.69306210357983,-73.93663040794301,"(40.69306210357983, -73.93663040794301)",Graffiti
45435866,2020,1,21,2020-01-21 13:05:18,,,833,,Graffiti,Graffiti,,11221,92A RALPH AVENUE,BROOKLYN,N/A,Open,Open,,303,BROOKLYN,40.68683722368636,-73.92350781979701,"(40.68683722368636, -73.92350781979701)",Graffiti
45435871,2020,1,21,2020-01-21 13:39:19,,,833,809,Graffiti,Graffiti,,11249,79 NORTH    9 STREET,BROOKLYN,N/A,Open,Open,2020-02-15 11:17:04,301,BROOKLYN,40.7207863015956,-73.95948330331328,"(40.7207863015956, -73.95948330331328)",Graffiti
46200939,2020,5,14,2020-05-14 11:14:09,,,720,-97,Graffiti,Graffiti,Mixed Use,11218,302 DITMAS AVENUE,BROOKLYN,N/A,Open,Open,2022-08-09 02:22:23,312,BROOKLYN,40.635787994096646,-73.97580597717746,"(40.635787994096646, -73.97580597717746)",Graffiti
45436408,2020,1,21,2020-01-21 13:43:48,,,833,794,Graffiti,Graffiti,Mixed Use,11212,73 HEGEMAN AVENUE,BROOKLYN,N/A,Open,Open,2020-02-29 15:53:21,316,BROOKLYN,40.6559647348753,-73.90944048024637,"(40.6559647348753, -73.90944048024637)",Graffiti
45436409,2020,1,21,2020-01-21 13:37:17,,,833,794,Graffiti,Graffiti,Mixed Use,11224,1527 MERMAID AVENUE,BROOKLYN,N/A,Open,Open,2020-02-29 15:53:21,313,BROOKLYN,40.57682832989672,-73.98300893794233,"(40.57682832989672, -73.98300893794233)",Graffiti
45436410,2020,1,21,2020-01-21 12:52:51,,,833,326,Graffiti,Graffiti,Mixed Use,11207,575 SUTTER AVENUE,BROOKLYN,N/A,Open,Open,2021-06-12 09:40:37,305,BROOKLYN,40.66902000383432,-73.89764954614724,"(40.66902000383432, -73.89764954614724)",Graffiti
45436411,2020,1,21,2020-01-21 10:32:37,,,834,794,Graffiti,Graffiti,Mixed Use,11238,417 PROSPECT PLACE,BROOKLYN,N/A,Open,Open,2020-02-29 15:53:21,308,BROOKLYN,40.67625884383291,-73.96212049684975,"(40.67625884383291, -73.96212049684975)",Graffiti
45436412,2020,1,21,2020-01-21 10:18:52,,,834,794,Graffiti,Graffiti,Mixed Use,11207,2814 FULTON STREET,BROOKLYN,N/A,Open,Open,2020-02-29 15:53:21,305,BROOKLYN,40.67817836386352,-73.89063765263165,"(40.67817836386352, -73.89063765263165)",Graffiti
45436414,2020,1,21,2020-01-21 10:14:09,,,834,794,Graffiti,Graffiti,Mixed Use,11221,851 DEKALB AVENUE,BROOKLYN,N/A,Open,Open,2020-02-29 15:53:21,303,BROOKLYN,40.69245013769922,-73.94206169259415,"(40.69245013769922, -73.94206169259415)",Graffiti
45436415,2020,1,21,2020-01-21 10:05:34,,,834,794,Graffiti,Graffiti,Mixed Use,11237,476 JEFFERSON STREET,BROOKLYN,N/A,Open,Open,2020-02-29 15:53:21,304,BROOKLYN,40.70869545749204,-73.92187044219384,"(40.70869545749204, -73.92187044219384)",Graffiti
45436417,2020,1,21,2020-01-21 07:48:22,,,834,794,Graffiti,Graffiti,Mixed Use,10460,786 EAST TREMONT AVENUE,BRONX,N/A,Open,Open,2020-02-29 15:53:21,206,BRONX,40.8439943397836,-73.88826878367172,"(40.8439943397836, -73.88826878367172)",Graffiti
45436418,2020,1,21,2020-01-21 13:32:46,,,833,794,Graffiti,Graffiti,Mixed Use,11207,601 NEW LOTS AVENUE,BROOKLYN,N/A,Open,Open,2020-02-29 15:53:21,305,BROOKLYN,40.66457712258365,-73.8869040219455,"(40.66457712258365, -73.8869040219455)",Graffiti
45436419,2020,1,21,2020-01-21 13:18:37,,,833,794,Graffiti,Graffiti,Mixed Use,11233,151 HOWARD AVENUE,BROOKLYN,N/A,Open,Open,2020-02-29 15:53:21,303,BROOKLYN,40.68332706420946,-73.92006493875527,"(40.68332706420946, -73.92006493875527)",Graffiti
45436423,2020,1,21,2020-01-21 10:51:08,,,834,794,Graffiti,Graffiti,Mixed Use,11208,3324 FULTON STREET,BROOKLYN,N/A,Open,Open,2020-02-29 15:53:21,305,BROOKLYN,40.68344108644314,-73.87290048445416,"(40.68344108644314, -73.87290048445416)",Graffiti
45436425,2020,1,21,2020-01-21 09:11:06,,,834,794,Graffiti,Graffiti,Mixed Use,11205,614 MYRTLE AVENUE,BROOKLYN,N/A,Open,Open,2020-02-29 15:53:21,303,BROOKLYN,40.694173114142856,-73.95960765995456,"(40.694173114142856, -73.95960765995456)",Graffiti
45436836,2020,1,21,2020-01-21 13:58:32,,,833,794,Graffiti,Graffiti,Comercial,11237,1360 GREENE AVENUE,BROOKLYN,N/A,Open,Open,2020-02-29 15:53:21,304,BROOKLYN,40.69944026477725,-73.91814864045266,"(40.69944026477725, -73.91814864045266)",Graffiti
45436846,2020,1,21,2020-01-21 13:41:48,,,833,794,Graffiti,Graffiti,Comercial,11222,38 FRANKLIN STREET,BROOKLYN,N/A,Open,Open,2020-02-29 15:53:21,301,BROOKLYN,40.72644520805336,-73.95731152476532,"(40.72644520805336, -73.95731152476532)",Graffiti
45436883,2020,1,21,2020-01-21 09:48:17,,,834,794,Graffiti,Graffiti,Comercial,11205,814 BEDFORD AVENUE,BROOKLYN,N/A,Open,Open,2020-02-29 15:53:21,303,BROOKLYN,40.69645289397367,-73.95652653225528,"(40.69645289397367, -73.95652653225528)",Graffiti
45436857,2020,1,21,2020-01-21 09:58:50,,,834,326,Graffiti,Graffiti,Comercial,11207,797 ASHFORD STREET,BROOKLYN,N/A,Open,Open,2021-06-12 09:40:37,305,BROOKLYN,40.66255067142712,-73.88067539741746,"(40.66255067142712, -73.88067539741746)",Graffiti
45436884,2020,1,21,2020-01-21 08:55:51,,,834,794,Graffiti,Graffiti,Comercial,11215,628 4 AVENUE,BROOKLYN,N/A,Open,Open,2020-02-29 15:53:21,307,BROOKLYN,40.664525504034025,-73.99380741056473,"(40.664525504034025, -73.99380741056473)",Graffiti
45437026,2020,1,21,2020-01-21 10:08:43,,,834,794,Graffiti,Graffiti,Residential,11221,1040 DEKALB AVENUE,BROOKLYN,N/A,Open,Open,2020-02-29 15:53:21,303,BROOKLYN,40.69343355919287,-73.93338456685926,"(40.69343355919287, -73.93338456685926)",Graffiti
45437027,2020,1,21,2020-01-21 13:28:18,,,833,326,Graffiti,Graffiti,Residential,11207,300 NEW LOTS AVENUE,BROOKLYN,N/A,Open,Open,2021-06-12 09:40:37,305,BROOKLYN,40.66088777641048,-73.89521828114377,"(40.66088777641048, -73.89521828114377)",Graffiti
45437038,2020,1,21,2020-01-21 10:01:46,,,834,,Graffiti,Graffiti,,11225,1930 BEDFORD AVENUE,BROOKLYN,N/A,Open,Open,,309,BROOKLYN,40.65796295890355,-73.95662369893581,"(40.65796295890355, -73.95662369893581)",Graffiti
45437036,2020,1,21,2020-01-21 09:11:56,,,834,326,Graffiti,Graffiti,,11205,390 WILLOUGHBY AVENUE,BROOKLYN,N/A,Open,Open,2021-06-12 09:40:37,303,BROOKLYN,40.69292852464967,-73.95629804174479,"(40.69292852464967, -73.95629804174479)",Graffiti
45437631,2020,1,21,2020-01-21 12:40:40,,,833,794,Graffiti,Graffiti,Mixed Use,11226,1924 CHURCH AVENUE,BROOKLYN,N/A,Open,Open,2020-02-29 15:53:21,314,BROOKLYN,40.64987592340822,-73.96180393151748,"(40.64987592340822, -73.96180393151748)",Graffiti
45437640,2020,1,21,2020-01-21 10:03:25,,,834,794,Graffiti,Graffiti,Mixed Use,11225,311 ROGERS AVENUE,BROOKLYN,N/A,Open,Open,2020-02-29 15:53:21,309,BROOKLYN,40.6658393170925,-73.95365198664463,"(40.6658393170925, -73.95365198664463)",Graffiti
45437641,2020,1,21,2020-01-21 09:45:20,,,834,-78,Graffiti,Graffiti,Mixed Use,11212,1093 CLARKSON AVENUE,BROOKLYN,N/A,Open,Open,2022-07-21 02:22:26,317,BROOKLYN,40.659909949223945,-73.9219924578375,"(40.659909949223945, -73.9219924578375)",Graffiti
45437652,2020,1,21,2020-01-21 09:58:43,,,834,809,Graffiti,Graffiti,Mixed Use,11226,969 ROGERS AVENUE,BROOKLYN,N/A,Open,Open,2020-02-15 11:07:42,317,BROOKLYN,40.646353433885956,-73.95199347394073,"(40.646353433885956, -73.95199347394073)",Graffiti
45437669,2020,1,21,2020-01-21 11:26:31,,,834,794,Graffiti,Graffiti,Mixed Use,11207,2788 FULTON STREET,BROOKLYN,N/A,Open,Open,2020-02-29 15:53:21,305,BROOKLYN,40.67800380281289,-73.89180604483909,"(40.67800380281289, -73.89180604483909)",Graffiti
45437671,2020,1,21,2020-01-21 13:24:04,,,833,794,Graffiti,Graffiti,Mixed Use,11208,3309 FULTON STREET,BROOKLYN,N/A,Open,Open,2020-02-29 15:53:21,305,BROOKLYN,40.683296233576044,-73.87346322671739,"(40.683296233576044, -73.87346322671739)",Graffiti
45437672,2020,1,21,2020-01-21 13:21:54,,,833,326,Graffiti,Graffiti,Mixed Use,11211,339 BEDFORD AVENUE,BROOKLYN,N/A,Open,Open,2021-06-12 09:40:37,301,BROOKLYN,40.71230332612289,-73.96267715208417,"(40.71230332612289, -73.96267715208417)",Graffiti
45437673,2020,1,21,2020-01-21 11:36:35,,,834,794,Graffiti,Graffiti,Mixed Use,11208,3395 FULTON STREET,BROOKLYN,N/A,Open,Open,2020-02-29 15:53:21,305,BROOKLYN,40.68416021018688,-73.87043288393448,"(40.68416021018688, -73.87043288393448)",Graffiti
45437674,2020,1,21,2020-01-21 10:22:48,,,834,794,Graffiti,Graffiti,Mixed Use,11225,618 ROGERS AVENUE,BROOKLYN,N/A,Open,Open,2020-02-29 15:53:21,309,BROOKLYN,40.656608404868976,-73.95311417973734,"(40.656608404868976, -73.95311417973734)",Graffiti
45437675,2020,1,21,2020-01-21 10:15:08,,,834,794,Graffiti,Graffiti,Mixed Use,11226,708 ROGERS AVENUE,BROOKLYN,N/A,Open,Open,2020-02-29 15:53:21,317,BROOKLYN,40.65424504696277,-73.95286716612556,"(40.65424504696277, -73.95286716612556)",Graffiti
45437676,2020,1,21,2020-01-21 10:02:36,,,834,794,Graffiti,Graffiti,Mixed Use,11206,666 FLUSHING AVENUE,BROOKLYN,N/A,Open,Open,2020-02-29 15:53:21,303,BROOKLYN,40.70023624268685,-73.94605810270801,"(40.70023624268685, -73.94605810270801)",Graffiti
45437677,2020,1,21,2020-01-21 09:56:06,,,834,794,Graffiti,Graffiti,Mixed Use,11237,201 WYCKOFF AVENUE,BROOKLYN,N/A,Open,Open,2020-02-29 15:53:21,304,BROOKLYN,40.70240592514988,-73.91615777156437,"(40.70240592514988, -73.91615777156437)",Graffiti
45437678,2020,1,21,2020-01-21 08:54:40,,,834,794,Graffiti,Graffiti,Mixed Use,11201,36 BRIDGE STREET,BROOKLYN,N/A,Open,Open,2020-02-29 15:53:21,302,BROOKLYN,40.70359098302954,-73.98464290006318,"(40.70359098302954, -73.98464290006318)",Graffiti
45438043,2020,1,21,2020-01-21 10:11:07,,,834,794,Graffiti,Graffiti,Comercial,11221,882 DEKALB AVENUE,BROOKLYN,N/A,Open,Open,2020-02-29 15:53:21,303,BROOKLYN,40.69257303961505,-73.9408571647317,"(40.69257303961505, -73.9408571647317)",Graffiti
45438044,2020,1,21,2020-01-21 10:04:57,,,834,794,Graffiti,Graffiti,Comercial,11206,755 FLUSHING AVENUE,BROOKLYN,N/A,Open,Open,2020-02-29 15:53:21,301,BROOKLYN,40.70065724211778,-73.94255586193279,"(40.70065724211778, -73.94255586193279)",Graffiti
45438060,2020,1,21,2020-01-21 09:59:19,,,834,794,Graffiti,Graffiti,Comercial,11208,1100 LINWOOD STREET,BROOKLYN,N/A,Open,Open,2020-02-29 15:53:21,305,BROOKLYN,40.65888829802818,-73.87472775562293,"(40.65888829802818, -73.87472775562293)",Graffiti
45438046,2020,1,21,2020-01-21 09:44:02,,,834,-78,Graffiti,Graffiti,Comercial,11212,218 REMSEN AVENUE,BROOKLYN,N/A,Open,Open,2022-07-21 02:22:26,317,BROOKLYN,40.65915297279211,-73.92706451581114,"(40.65915297279211, -73.92706451581114)",Graffiti
45438086,2020,1,21,2020-01-21 09:01:10,,,834,794,Graffiti,Graffiti,Comercial,11201,218 FRONT STREET,BROOKLYN,N/A,Open,Open,2020-02-29 15:53:21,302,BROOKLYN,40.70230904771051,-73.98369827220098,"(40.70230904771051, -73.98369827220098)",Graffiti
45438220,2020,1,21,2020-01-21 10:45:04,,,834,794,Graffiti,Graffiti,Residential,11208,3084 FULTON STREET,BROOKLYN,N/A,Open,Open,2020-02-29 15:53:21,305,BROOKLYN,40.68102634910532,-73.88123002336528,"(40.68102634910532, -73.88123002336528)",Graffiti
45438225,2020,1,21,2020-01-21 13:28:05,,,833,809,Graffiti,Graffiti,Residential,11211,340 METROPOLITAN AVENUE,BROOKLYN,N/A,Open,Open,2020-02-15 11:15:04,301,BROOKLYN,40.71427748157951,-73.9567529833386,"(40.71427748157951, -73.9567529833386)",Graffiti
45438226,2020,1,21,2020-01-21 12:26:25,,,833,809,Graffiti,Graffiti,Residential,11216,753 DEKALB AVENUE,BROOKLYN,N/A,Open,Open,2020-02-15 11:10:41,303,BROOKLYN,40.6919581714936,-73.94637852335603,"(40.6919581714936, -73.94637852335603)",Graffiti
45438227,2020,1,21,2020-01-21 10:02:12,,,834,794,Graffiti,Graffiti,Residential,11237,87 WYCKOFF AVENUE,BROOKLYN,N/A,Open,Open,2020-02-29 15:53:21,304,BROOKLYN,40.70504940182572,-73.92039956422754,"(40.70504940182572, -73.92039956422754)",Graffiti
45438232,2020,1,21,2020-01-21 12:36:52,,,833,,Graffiti,Graffiti,,11208,778 NEW LOTS AVENUE,BROOKLYN,N/A,Open,Open,,305,BROOKLYN,40.66669385086972,-73.88194042855386,"(40.66669385086972, -73.88194042855386)",Graffiti
45438242,2020,1,21,2020-01-21 09:54:13,,,834,,Graffiti,Graffiti,,11212,1035 LINDEN BOULEVARD,BROOKLYN,N/A,Open,Open,,317,BROOKLYN,40.654374740133726,-73.91948334714003,"(40.654374740133726, -73.91948334714003)",Graffiti
45438792,2020,1,21,2020-01-21 13:03:40,,,833,794,Graffiti,Graffiti,Mixed Use,11233,79 SARATOGA AVENUE,BROOKLYN,N/A,Open,Open,2020-02-29 15:53:21,316,BROOKLYN,40.68420079013247,-73.91743540966299,"(40.68420079013247, -73.91743540966299)",Graffiti
45438794,2020,1,21,2020-01-21 12:01:28,,,833,794,Graffiti,Graffiti,Mixed Use,11207,51 ARLINGTON AVENUE,BROOKLYN,N/A,Open,Open,2020-02-29 15:53:21,305,BROOKLYN,40.67964338967189,-73.89282730529544,"(40.67964338967189, -73.89282730529544)",Graffiti
45438795,2020,1,21,2020-01-21 22:34:00,,,833,794,Graffiti,Graffiti,Mixed Use,11212,510 ROCKAWAY AVENUE,BROOKLYN,N/A,Open,Open,2020-02-29 15:53:21,316,BROOKLYN,40.66762517782597,-73.91022489295227,"(40.66762517782597, -73.91022489295227)",Graffiti
45438797,2020,1,21,2020-01-21 11:37:13,,,834,794,Graffiti,Graffiti,Mixed Use,11208,3423 FULTON STREET,BROOKLYN,N/A,Open,Open,2020-02-29 15:53:21,305,BROOKLYN,40.68449101406805,-73.86927123243241,"(40.68449101406805, -73.86927123243241)",Graffiti
45438800,2020,1,21,2020-01-21 10:11:35,,,834,794,Graffiti,Graffiti,Mixed Use,11226,163 LINDEN BOULEVARD,BROOKLYN,N/A,Open,Open,2020-02-29 15:53:21,317,BROOKLYN,40.652521061050535,-73.95223049626266,"(40.652521061050535, -73.95223049626266)",Graffiti
45438801,2020,1,21,2020-01-21 09:45:50,,,834,794,Graffiti,Graffiti,Mixed Use,11237,283 IRVING AVENUE,BROOKLYN,N/A,Open,Open,2020-02-29 15:53:21,304,BROOKLYN,40.699635935195765,-73.91544718119522,"(40.699635935195765, -73.91544718119522)",Graffiti
45438804,2020,1,21,2020-01-21 22:26:19,,,833,794,Graffiti,Graffiti,Mixed Use,11230,1385 CONEY ISLAND AVENUE,BROOKLYN,N/A,Open,Open,2020-02-29 15:53:21,314,BROOKLYN,40.623861844984965,-73.9649888763884,"(40.623861844984965, -73.9649888763884)",Graffiti
45438806,2020,1,21,2020-01-21 12:25:03,,,833,794,Graffiti,Graffiti,Mixed Use,11208,2926 PITKIN AVENUE,BROOKLYN,N/A,Open,Open,2020-02-29 15:53:21,305,BROOKLYN,40.67647005762892,-73.86391523133808,"(40.67647005762892, -73.86391523133808)",Graffiti
45438807,2020,1,21,2020-01-21 11:34:42,,,834,794,Graffiti,Graffiti,Mixed Use,11208,3287 FULTON STREET,BROOKLYN,N/A,Open,Open,2020-02-29 15:53:21,305,BROOKLYN,40.6831622543643,-73.87393220181606,"(40.6831622543643, -73.87393220181606)",Graffiti
45438808,2020,1,21,2020-01-21 10:31:26,,,834,794,Graffiti,Graffiti,Mixed Use,11225,235 ROGERS AVENUE,BROOKLYN,N/A,Open,Open,2020-02-29 15:53:21,309,BROOKLYN,40.66846048016712,-73.95340504244923,"(40.66846048016712, -73.95340504244923)",Graffiti
45438835,2020,1,21,2020-01-21 12:46:28,,,833,794,Graffiti,Graffiti,Mixed Use,11207,740 SUTTER AVENUE,BROOKLYN,N/A,Open,Open,2020-02-29 15:53:21,305,BROOKLYN,40.66995556719945,-73.89122430328264,"(40.66995556719945, -73.89122430328264)",Graffiti
45438836,2020,1,21,2020-01-21 12:40:35,,,833,794,Graffiti,Graffiti,Mixed Use,11233,790 MACDONOUGH STREET,BROOKLYN,N/A,Open,Open,2020-02-29 15:53:21,316,BROOKLYN,40.68428421776233,-73.91515295922507,"(40.68428421776233, -73.91515295922507)",Graffiti
45438834,2020,1,21,2020-01-21 13:22:45,,,833,326,Graffiti,Graffiti,Mixed Use,11211,311 BEDFORD AVENUE,BROOKLYN,N/A,Open,Open,2021-06-12 09:40:37,301,BROOKLYN,40.71335984219823,-73.96201284025369,"(40.71335984219823, -73.96201284025369)",Graffiti
45438849,2020,1,21,2020-01-21 11:24:54,,,834,794,Graffiti,Graffiti,Mixed Use,11207,110 VAN SICLEN AVENUE,BROOKLYN,N/A,Open,Open,2020-02-29 15:53:21,305,BROOKLYN,40.677575394409665,-73.89156879388236,"(40.677575394409665, -73.89156879388236)",Graffiti
45438850,2020,1,21,2020-01-21 10:12:20,,,834,794,Graffiti,Graffiti,Mixed Use,11221,868 DEKALB AVENUE,BROOKLYN,N/A,Open,Open,2020-02-29 15:53:21,303,BROOKLYN,40.692518382368796,-73.94132239342525,"(40.692518382368796, -73.94132239342525)",Graffiti
45438852,2020,1,21,2020-01-21 09:58:09,,,834,809,Graffiti,Graffiti,Mixed Use,11206,211 HARRISON AVENUE,BROOKLYN,N/A,Open,Open,2020-02-15 11:07:04,301,BROOKLYN,40.70023953411017,-73.94723741430855,"(40.70023953411017, -73.94723741430855)",Graffiti
45439374,2020,1,21,2020-01-21 09:39:13,,,834,794,Graffiti,Graffiti,Mixed Use,11205,735 MYRTLE AVENUE,BROOKLYN,N/A,Open,Open,2020-02-29 15:53:21,303,BROOKLYN,40.69491729576492,-73.95327836755051,"(40.69491729576492, -73.95327836755051)",Graffiti
45439194,2020,1,21,2020-01-21 12:49:48,,,833,794,Graffiti,Graffiti,Comercial,11236,1465 ROCKAWAY PARKWAY,BROOKLYN,N/A,Open,Open,2020-02-29 15:53:21,318,BROOKLYN,40.64457848911436,-73.90168327401555,"(40.64457848911436, -73.90168327401555)",Graffiti
45439205,2020,1,21,2020-01-21 20:15:50,,,833,794,Graffiti,Graffiti,Comercial,11209,6910 FIFTH AVENUE,BROOKLYN,N/A,Open,Open,2020-02-29 15:53:21,310,BROOKLYN,40.63330731706385,-74.02109107139538,"(40.63330731706385, -74.02109107139538)",Graffiti
45439206,2020,1,21,2020-01-21 13:29:36,,,833,794,Graffiti,Graffiti,Comercial,11249,49 SOUTH    2 STREET,BROOKLYN,N/A,Open,Open,2020-02-29 15:53:21,301,BROOKLYN,40.71451936486379,-73.96595489046855,"(40.71451936486379, -73.96595489046855)",Graffiti
45439209,2020,1,21,2020-01-21 11:52:55,,,834,794,Graffiti,Graffiti,Comercial,11208,430 CRESCENT STREET,BROOKLYN,N/A,Open,Open,2020-02-29 15:53:21,305,BROOKLYN,40.67810277897637,-73.87068981100394,"(40.67810277897637, -73.87068981100394)",Graffiti
45439210,2020,1,21,2020-01-21 09:56:55,,,834,794,Graffiti,Graffiti,Comercial,11205,85 CLASSON AVENUE,BROOKLYN,N/A,Open,Open,2020-02-29 15:53:21,303,BROOKLYN,40.697953449374786,-73.96192424730485,"(40.697953449374786, -73.96192424730485)",Graffiti
45439227,2020,1,21,2020-01-21 10:55:04,,,834,794,Graffiti,Graffiti,Comercial,11207,759 NEW LOTS AVENUE,BROOKLYN,N/A,Open,Open,2020-02-29 15:53:21,305,BROOKLYN,40.66616814551528,-73.88320658276385,"(40.66616814551528, -73.88320658276385)",Graffiti
45439207,2020,1,21,2020-01-21 13:28:53,,,833,326,Graffiti,Graffiti,Comercial,11249,66 SOUTH    2 STREET,BROOKLYN,N/A,Open,Open,2021-06-12 09:40:37,301,BROOKLYN,40.7143627630352,-73.96544995833835,"(40.7143627630352, -73.96544995833835)",Graffiti
45439364,2020,1,21,2020-01-21 10:32:21,,,834,794,Graffiti,Graffiti,Mixed Use,11238,416 PROSPECT PLACE,BROOKLYN,N/A,Open,Open,2020-02-29 15:53:21,308,BROOKLYN,40.67626162061271,-73.96221783482635,"(40.67626162061271, -73.96221783482635)",Graffiti
45439365,2020,1,21,2020-01-21 09:56:39,,,834,794,Graffiti,Graffiti,Mixed Use,11237,158 WYCKOFF AVENUE,BROOKLYN,N/A,Open,Open,2020-02-29 15:53:21,304,BROOKLYN,40.70260655246593,-73.91651457211464,"(40.70260655246593, -73.91651457211464)",Graffiti
45439371,2020,1,21,2020-01-21 10:52:58,,,834,794,Graffiti,Graffiti,Mixed Use,11212,9609 CHURCH AVENUE,BROOKLYN,N/A,Open,Open,2020-02-29 15:53:21,317,BROOKLYN,40.65581274177321,-73.91529368822057,"(40.65581274177321, -73.91529368822057)",Graffiti
45439372,2020,1,21,2020-01-21 10:01:38,,,834,794,Graffiti,Graffiti,Mixed Use,11206,664 FLUSHING AVENUE,BROOKLYN,N/A,Open,Open,2020-02-29 15:53:21,303,BROOKLYN,40.700192503284356,-73.94643681672426,"(40.700192503284356, -73.94643681672426)",Graffiti
45439373,2020,1,21,2020-01-21 09:52:27,,,834,794,Graffiti,Graffiti,Mixed Use,11237,235 WYCKOFF AVENUE,BROOKLYN,N/A,Open,Open,2020-02-29 15:53:21,304,BROOKLYN,40.70168865790753,-73.91495408758972,"(40.70168865790753, -73.91495408758972)",Graffiti
45439375,2020,1,21,2020-01-21 09:26:48,,,834,794,Graffiti,Graffiti,Mixed Use,11237,184 WYCKOFF AVENUE,BROOKLYN,N/A,Open,Open,2020-02-29 15:53:21,304,BROOKLYN,40.70194152965504,-73.91543343731115,"(40.70194152965504, -73.91543343731115)",Graffiti
45439408,2020,1,21,2020-01-21 13:46:18,,,833,37,Graffiti,Graffiti,Mixed Use,11207,607 HEGEMAN AVENUE,BROOKLYN,N/A,Open,Open,2022-03-27 12:14:33,305,BROOKLYN,40.66092073624726,-73.88937919541061,"(40.66092073624726, -73.88937919541061)",Graffiti
45439409,2020,1,21,2020-01-21 13:24:06,,,833,794,Graffiti,Graffiti,Mixed Use,11211,172 GRAND STREET,BROOKLYN,N/A,Open,Open,2020-02-29 15:53:21,301,BROOKLYN,40.71440253567804,-73.96106715130767,"(40.71440253567804, -73.96106715130767)",Graffiti
45439413,2020,1,21,2020-01-21 09:53:58,,,834,794,Graffiti,Graffiti,Mixed Use,11237,223 WYCKOFF AVENUE,BROOKLYN,N/A,Open,Open,2020-02-29 15:53:21,304,BROOKLYN,40.701944253217356,-73.9154045813853,"(40.701944253217356, -73.9154045813853)",Graffiti
45439414,2020,1,21,2020-01-21 09:53:38,,,834,794,Graffiti,Graffiti,Mixed Use,11237,225 WYCKOFF AVENUE,BROOKLYN,N/A,Open,Open,2020-02-29 15:53:21,304,BROOKLYN,40.7019030260621,-73.91532889601092,"(40.7019030260621, -73.91532889601092)",Graffiti
45439416,2020,1,21,2020-01-21 13:33:37,,,833,794,Graffiti,Graffiti,Mixed Use,11207,597 NEW LOTS AVENUE,BROOKLYN,N/A,Open,Open,2020-02-29 15:53:21,305,BROOKLYN,40.66453878073727,-73.88699059585979,"(40.66453878073727, -73.88699059585979)",Graffiti
45439417,2020,1,21,2020-01-21 12:43:45,,,833,794,Graffiti,Graffiti,Mixed Use,11226,831 FLATBUSH AVENUE,BROOKLYN,N/A,Open,Open,2020-02-29 15:53:21,314,BROOKLYN,40.652262977636745,-73.95916453068632,"(40.652262977636745, -73.95916453068632)",Graffiti
45439531,2020,1,21,2020-01-21 09:36:15,,,834,794,Graffiti,Graffiti,,11226,892 FLATBUSH AVENUE,BROOKLYN,N/A,Open,Open,2020-02-29 15:53:21,314,BROOKLYN,40.650075199483446,-73.95864332545104,"(40.650075199483446, -73.95864332545104)",Graffiti
45439536,2020,1,21,2020-01-21 10:42:36,,,834,,Graffiti,Graffiti,,11216,1240 FULTON STREET,BROOKLYN,N/A,Open,Open,,303,BROOKLYN,40.6804485597768,-73.9507647278001,"(40.6804485597768, -73.9507647278001)",Graffiti
45439538,2020,1,21,2020-01-21 12:22:00,,,833,794,Graffiti,Graffiti,Residential,11208,2553 PITKIN AVENUE,BROOKLYN,N/A,Open,Open,2020-02-29 15:53:21,305,BROOKLYN,40.67454793525572,-73.87789965205016,"(40.67454793525572, -73.87789965205016)",Graffiti
45439554,2020,1,21,2020-01-21 13:27:17,,,833,326,Graffiti,Graffiti,,11211,291 METROPOLITAN AVENUE,BROOKLYN,N/A,Open,Open,2021-06-12 09:40:37,301,BROOKLYN,40.714607293907804,-73.95794315947035,"(40.714607293907804, -73.95794315947035)",Graffiti
45439576,2020,1,21,2020-01-21 10:00:19,,,834,794,Graffiti,Graffiti,,11206,667 FLUSHING AVENUE,BROOKLYN,N/A,Open,Open,2020-02-29 15:53:21,301,BROOKLYN,40.70019803808997,-73.94653418678912,"(40.70019803808997, -73.94653418678912)",Graffiti
45732900,2020,3,2,2020-03-02 13:19:09,,,792,326,Graffiti,Graffiti,Comercial,10016,132 EAST   28 STREET,NEW YORK,N/A,Open,Open,2021-06-12 09:40:37,106,MANHATTAN,40.742536005324766,-73.98221966639913,"(40.742536005324766, -73.98221966639913)",Graffiti
45408545,2020,1,17,2020-01-17 08:01:07,,,838,794,Graffiti,Graffiti,Mixed Use,11220,4623 6 AVENUE,BROOKLYN,N/A,Open,Open,2020-02-29 15:53:21,307,BROOKLYN,40.64584179059614,-74.00595302274411,"(40.64584179059614, -74.00595302274411)",Graffiti
45408259,2020,1,17,2020-01-17 08:28:30,,,838,809,Graffiti,Graffiti,Comercial,11221,1291 BROADWAY,BROOKLYN,N/A,Open,Open,2020-02-15 10:54:53,304,BROOKLYN,40.69080945297741,-73.92433263277715,"(40.69080945297741, -73.92433263277715)",Graffiti
45408269,2020,1,17,2020-01-17 09:57:31,,,838,794,Graffiti,Graffiti,Comercial,11214,2269 86 STREET,BROOKLYN,N/A,Open,Open,2020-02-29 15:53:21,311,BROOKLYN,40.60089297826568,-73.99208838611291,"(40.60089297826568, -73.99208838611291)",Graffiti
45408522,2020,1,17,2020-01-17 07:31:34,,,838,794,Graffiti,Graffiti,Mixed Use,11215,507 3 AVENUE,BROOKLYN,N/A,Open,Open,2020-02-29 15:53:21,306,BROOKLYN,40.669880475486345,-73.9923253309573,"(40.669880475486345, -73.9923253309573)",Graffiti
45408523,2020,1,17,2020-01-17 08:10:48,,,838,794,Graffiti,Graffiti,Mixed Use,11233,2101 FULTON STREET,BROOKLYN,N/A,Open,Open,2020-02-29 15:53:21,316,BROOKLYN,40.67820560923384,-73.90935259445892,"(40.67820560923384, -73.90935259445892)",Graffiti
45408528,2020,1,17,2020-01-17 08:03:47,,,838,794,Graffiti,Graffiti,Mixed Use,11232,4112 5 AVENUE,BROOKLYN,N/A,Open,Open,2020-02-29 15:53:21,307,BROOKLYN,40.650016641883425,-74.00522183396956,"(40.650016641883425, -74.00522183396956)",Graffiti
45408537,2020,1,17,2020-01-17 08:33:20,,,838,794,Graffiti,Graffiti,Mixed Use,11216,1349 FULTON STREET,BROOKLYN,N/A,Open,Open,2020-02-29 15:53:21,303,BROOKLYN,40.680279608768515,-73.94733252492564,"(40.680279608768515, -73.94733252492564)",Graffiti
45408538,2020,1,17,2020-01-17 09:34:23,,,838,794,Graffiti,Graffiti,Mixed Use,11206,641 MARCY AVENUE,BROOKLYN,N/A,Open,Open,2020-02-29 15:53:21,303,BROOKLYN,40.69262343995924,-73.94864619608698,"(40.69262343995924, -73.94864619608698)",Graffiti
45408547,2020,1,17,2020-01-17 07:57:43,,,838,794,Graffiti,Graffiti,Mixed Use,11220,580 52 STREET,BROOKLYN,N/A,Open,Open,2020-02-29 15:53:21,307,BROOKLYN,40.64301987977915,-74.00990206699713,"(40.64301987977915, -74.00990206699713)",Graffiti
45408552,2020,1,17,2020-01-17 17:27:48,,,837,794,Graffiti,Graffiti,Mixed Use,11209,7017 3 AVENUE,BROOKLYN,N/A,Open,Open,2020-02-29 15:53:21,310,BROOKLYN,40.63445076191086,-74.02655344387728,"(40.63445076191086, -74.02655344387728)",Graffiti
45408802,2020,1,17,2020-01-17 10:08:34,,,838,809,Graffiti,Graffiti,Residential,11220,5718 4 AVENUE,BROOKLYN,N/A,Open,Open,2020-02-15 11:00:40,307,BROOKLYN,40.64239600972781,-74.01682038455446,"(40.64239600972781, -74.01682038455446)",Graffiti
45408843,2020,1,17,2020-01-17 08:36:11,,,838,,Graffiti,Graffiti,,11230,1259 NEWKIRK AVENUE,BROOKLYN,N/A,Open,Open,,314,BROOKLYN,40.634509028426024,-73.9654696837162,"(40.634509028426024, -73.9654696837162)",Graffiti
45408844,2020,1,17,2020-01-17 08:52:24,,,838,794,Graffiti,Graffiti,Residential,11220,313 49 STREET,BROOKLYN,N/A,Open,Open,2020-02-29 15:53:21,307,BROOKLYN,40.64788877255961,-74.0134019194247,"(40.64788877255961, -74.0134019194247)",Graffiti
45408852,2020,1,17,2020-01-17 09:33:29,,,838,326,Graffiti,Graffiti,Residential,11206,236 PULASKI STREET,BROOKLYN,N/A,Open,Open,2021-06-12 09:40:37,303,BROOKLYN,40.69318572650769,-73.94204302296744,"(40.69318572650769, -73.94204302296744)",Graffiti
45409226,2020,1,17,2020-01-17 09:31:56,,,838,809,Graffiti,Graffiti,Comercial,11221,749 LEXINGTON AVENUE,BROOKLYN,N/A,Open,Open,2020-02-15 10:59:20,303,BROOKLYN,40.6899655771398,-73.93111270216572,"(40.6899655771398, -73.93111270216572)",Graffiti
45409223,2020,1,17,2020-01-17 08:18:02,,,838,-78,Graffiti,Graffiti,Comercial,11215,270 4 AVENUE,BROOKLYN,N/A,Open,Open,2022-07-21 02:22:26,306,BROOKLYN,40.675964794430485,-73.98405801655072,"(40.675964794430485, -73.98405801655072)",Graffiti
45409234,2020,1,17,2020-01-17 19:10:45,,,837,794,Graffiti,Graffiti,Comercial,10454,285 WILLIS AVENUE,BRONX,N/A,Open,Open,2020-02-29 15:53:21,201,BRONX,40.81010574435293,-73.92217405242684,"(40.81010574435293, -73.92217405242684)",Graffiti
45409248,2020,1,17,2020-01-17 08:39:21,,,838,794,Graffiti,Graffiti,Comercial,11226,1172 FLATBUSH AVENUE,BROOKLYN,N/A,Open,Open,2020-02-29 15:53:21,314,BROOKLYN,40.64160134638105,-73.95673162397561,"(40.64160134638105, -73.95673162397561)",Graffiti
45409257,2020,1,17,2020-01-17 10:11:53,,,838,794,Graffiti,Graffiti,Comercial,11232,4801 2 AVENUE,BROOKLYN,N/A,Open,Open,2020-02-29 15:53:21,307,BROOKLYN,40.65012546115402,-74.01583850782595,"(40.65012546115402, -74.01583850782595)",Graffiti
45409527,2020,1,17,2020-01-17 07:12:57,,,838,794,Graffiti,Graffiti,Mixed Use,11220,374 56 STREET,BROOKLYN,N/A,Open,Open,2020-02-29 15:53:21,307,BROOKLYN,40.643480217140066,-74.01670174576115,"(40.643480217140066, -74.01670174576115)",Graffiti
45409534,2020,1,17,2020-01-17 15:52:55,,,837,794,Graffiti,Graffiti,Mixed Use,10454,555 EAST  141 STREET,BRONX,N/A,Open,Open,2020-02-29 15:53:21,201,BRONX,40.80898201099673,-73.9166159463359,"(40.80898201099673, -73.9166159463359)",Graffiti
45409543,2020,1,17,2020-01-17 06:42:20,,,838,794,Graffiti,Graffiti,Mixed Use,11208,480 GRANT AVENUE,BROOKLYN,N/A,Open,Open,2020-02-29 15:53:21,305,BROOKLYN,40.67918476457543,-73.86636131653226,"(40.67918476457543, -73.86636131653226)",Graffiti
45409544,2020,1,17,2020-01-17 07:45:49,,,838,794,Graffiti,Graffiti,Mixed Use,11214,2 BAY   28 STREET,BROOKLYN,N/A,Open,Open,2020-02-29 15:53:21,311,BROOKLYN,40.60257847150102,-73.99559574508814,"(40.60257847150102, -73.99559574508814)",Graffiti
45409545,2020,1,17,2020-01-17 07:51:39,,,838,794,Graffiti,Graffiti,Mixed Use,11220,400 49 STREET,BROOKLYN,N/A,Open,Open,2020-02-29 15:53:21,307,BROOKLYN,40.64678830906216,-74.01161072119983,"(40.64678830906216, -74.01161072119983)",Graffiti
45409550,2020,1,17,2020-01-17 08:48:13,,,838,794,Graffiti,Graffiti,Mixed Use,11213,105 KINGSTON AVENUE,BROOKLYN,N/A,Open,Open,2020-02-29 15:53:21,308,BROOKLYN,40.67624748204013,-73.9415385985635,"(40.67624748204013, -73.9415385985635)",Graffiti
45409552,2020,1,17,2020-01-17 09:25:44,,,838,794,Graffiti,Graffiti,Mixed Use,11219,1070 45 STREET,BROOKLYN,N/A,Open,Open,2020-02-29 15:53:21,312,BROOKLYN,40.64023422835084,-73.99473569289704,"(40.64023422835084, -73.99473569289704)",Graffiti
45409553,2020,1,17,2020-01-17 06:22:49,,,838,794,Graffiti,Graffiti,Mixed Use,11208,1090 LIBERTY AVENUE,BROOKLYN,N/A,Open,Open,2020-02-29 15:53:21,305,BROOKLYN,40.6783974491923,-73.86912815004234,"(40.6783974491923, -73.86912815004234)",Graffiti
45409555,2020,1,17,2020-01-17 08:48:55,,,838,794,Graffiti,Graffiti,Mixed Use,11213,98 KINGSTON AVENUE,BROOKLYN,N/A,Open,Open,2020-02-29 15:53:21,308,BROOKLYN,40.6762557273506,-73.94156022234853,"(40.6762557273506, -73.94156022234853)",Graffiti
45409563,2020,1,17,2020-01-17 08:22:44,,,838,794,Graffiti,Graffiti,Mixed Use,11233,1922 FULTON STREET,BROOKLYN,N/A,Open,Open,2020-02-29 15:53:21,303,BROOKLYN,40.67889297604119,-73.92220459828687,"(40.67889297604119, -73.92220459828687)",Graffiti
45409828,2020,1,17,2020-01-17 09:01:53,,,838,794,Graffiti,Graffiti,Residential,11226,2533 CHURCH AVENUE,BROOKLYN,N/A,Open,Open,2020-02-29 15:53:21,317,BROOKLYN,40.65063865026945,-73.953475149636,"(40.65063865026945, -73.953475149636)",Graffiti
45409893,2020,1,17,2020-01-17 08:15:29,,,838,809,Graffiti,Graffiti,Residential,11221,735 LAFAYETTE AVENUE,BROOKLYN,N/A,Open,Open,2020-02-15 10:53:07,303,BROOKLYN,40.690754723757465,-73.94378320525144,"(40.690754723757465, -73.94378320525144)",Graffiti
45409911,2020,1,17,2020-01-17 08:53:54,,,838,794,Graffiti,Graffiti,Residential,11220,4520 4 AVENUE,BROOKLYN,N/A,Open,Open,2020-02-29 15:53:21,307,BROOKLYN,40.649110560624635,-74.00984531172224,"(40.649110560624635, -74.00984531172224)",Graffiti
45410113,2020,1,17,2020-01-17 08:34:02,,,838,794,Graffiti,Graffiti,Mixed Use,11221,1362 BROADWAY,BROOKLYN,N/A,Open,Open,2020-02-29 15:53:21,303,BROOKLYN,40.6895509182084,-73.92218855748187,"(40.6895509182084, -73.92218855748187)",Graffiti
45410114,2020,1,17,2020-01-17 08:42:00,,,838,794,Graffiti,Graffiti,Mixed Use,11220,4402 4 AVENUE,BROOKLYN,N/A,Open,Open,2020-02-29 15:53:21,307,BROOKLYN,40.64973642514945,-74.00919312803673,"(40.64973642514945, -74.00919312803673)",Graffiti
45410123,2020,1,17,2020-01-17 08:14:02,,,838,794,Graffiti,Graffiti,Mixed Use,11220,5825 5 AVENUE,BROOKLYN,N/A,Open,Open,2020-02-29 15:53:21,307,BROOKLYN,40.64044195343567,-74.01515880152178,"(40.64044195343567, -74.01515880152178)",Graffiti
45410124,2020,1,17,2020-01-17 09:35:19,,,838,794,Graffiti,Graffiti,Mixed Use,11225,711 FLATBUSH AVENUE,BROOKLYN,N/A,Open,Open,2020-02-29 15:53:21,309,BROOKLYN,40.6558040029939,-73.95989398800003,"(40.6558040029939, -73.95989398800003)",Graffiti
45410125,2020,1,17,2020-01-17 09:58:08,,,838,794,Graffiti,Graffiti,Mixed Use,11226,1812 CHURCH AVENUE,BROOKLYN,N/A,Open,Open,2020-02-29 15:53:21,314,BROOKLYN,40.64951395791357,-73.96286002967676,"(40.64951395791357, -73.96286002967676)",Graffiti
45410129,2020,1,17,2020-01-17 07:41:17,,,838,794,Graffiti,Graffiti,Mixed Use,11220,5807 4 AVENUE,BROOKLYN,N/A,Open,Open,2020-02-29 15:53:21,307,BROOKLYN,40.641874423463044,-74.017339129781,"(40.641874423463044, -74.017339129781)",Graffiti
45410130,2020,1,17,2020-01-17 07:58:28,,,838,794,Graffiti,Graffiti,Mixed Use,11220,575 52 STREET,BROOKLYN,N/A,Open,Open,2020-02-29 15:53:21,307,BROOKLYN,40.64309123733612,-74.00998135186171,"(40.64309123733612, -74.00998135186171)",Graffiti
45410133,2020,1,17,2020-01-17 09:40:45,,,838,794,Graffiti,Graffiti,Mixed Use,11226,717 FLATBUSH AVENUE,BROOKLYN,N/A,Open,Open,2020-02-29 15:53:21,309,BROOKLYN,40.655469112056814,-73.95981490033697,"(40.655469112056814, -73.95981490033697)",Graffiti
45410134,2020,1,17,2020-01-17 09:42:31,,,838,326,Graffiti,Graffiti,Mixed Use,11214,2216 86 STREET,BROOKLYN,N/A,Open,Open,2021-06-12 09:40:37,311,BROOKLYN,40.601694542790256,-73.9934171125137,"(40.601694542790256, -73.9934171125137)",Graffiti
45410135,2020,1,17,2020-01-17 08:53:18,,,838,-78,Graffiti,Graffiti,Mixed Use,11213,68 KINGSTON AVENUE,BROOKLYN,N/A,Open,Open,2022-07-21 02:22:26,308,BROOKLYN,40.677419456391895,-73.94145104564038,"(40.677419456391895, -73.94145104564038)",Graffiti
45410136,2020,1,17,2020-01-17 09:56:43,,,838,794,Graffiti,Graffiti,Mixed Use,11221,441 MARCUS GARVEY BOULEVARD,BROOKLYN,N/A,Open,Open,2020-02-29 15:53:21,303,BROOKLYN,40.6819766268031,-73.9378307499557,"(40.6819766268031, -73.9378307499557)",Graffiti
45410653,2020,1,17,2020-01-17 10:21:52,,,838,794,Graffiti,Graffiti,Comercial,11232,243 44 STREET,BROOKLYN,N/A,Open,Open,2020-02-29 15:53:21,307,BROOKLYN,40.65186332552265,-74.01244769759647,"(40.65186332552265, -74.01244769759647)",Graffiti
45410663,2020,1,17,2020-01-17 07:53:46,,,838,794,Graffiti,Graffiti,Comercial,11236,7907 FLATLANDS AVENUE,BROOKLYN,N/A,Open,Open,2020-02-29 15:53:21,318,BROOKLYN,40.635113284405755,-73.91390760744876,"(40.635113284405755, -73.91390760744876)",Graffiti
45410666,2020,1,17,2020-01-17 09:38:49,,,838,794,Graffiti,Graffiti,Comercial,11221,1222 BROADWAY,BROOKLYN,N/A,Open,Open,2020-02-29 15:53:21,303,BROOKLYN,40.69182895191395,-73.92616332956632,"(40.69182895191395, -73.92616332956632)",Graffiti
45411010,2020,1,17,2020-01-17 08:32:34,,,838,,Graffiti,Graffiti,,11216,1523 FULTON STREET,BROOKLYN,N/A,Open,Open,,303,BROOKLYN,40.67988079370987,-73.94004279242958,"(40.67988079370987, -73.94004279242958)",Graffiti
45411030,2020,1,17,2020-01-17 12:25:30,,,837,809,Graffiti,Graffiti,Residential,10021,157 EAST   70 STREET,NEW YORK,N/A,Open,Open,2020-02-15 11:01:36,108,MANHATTAN,40.76892481043727,-73.962695963063,"(40.76892481043727, -73.962695963063)",Graffiti
45411372,2020,1,17,2020-01-17 09:19:57,,,838,794,Graffiti,Graffiti,Comercial,11226,929 FLATBUSH AVENUE,BROOKLYN,N/A,Open,Open,2020-02-29 15:53:21,314,BROOKLYN,40.649479520616644,-73.95847431978022,"(40.649479520616644, -73.95847431978022)",Graffiti
45411380,2020,1,17,2020-01-17 09:00:16,,,838,794,Graffiti,Graffiti,Comercial,11226,2830 CHURCH AVENUE,BROOKLYN,N/A,Open,Open,2020-02-29 15:53:21,317,BROOKLYN,40.65073090781708,-73.9509127911318,"(40.65073090781708, -73.9509127911318)",Graffiti
45411408,2020,1,17,2020-01-17 07:25:51,,,838,38,Graffiti,Graffiti,Comercial,11232,748 3 AVENUE,BROOKLYN,N/A,Open,Open,2022-03-27 11:41:19,307,BROOKLYN,40.66193734415665,-73.99976931877399,"(40.66193734415665, -73.99976931877399)",Graffiti
45411709,2020,1,17,2020-01-17 10:00:13,,,838,794,Graffiti,Graffiti,Mixed Use,11214,2208 86 STREET,BROOKLYN,N/A,Open,Open,2020-02-29 15:53:21,311,BROOKLYN,40.60178512924848,-73.99356114945603,"(40.60178512924848, -73.99356114945603)",Graffiti
45411722,2020,1,17,2020-01-17 08:01:35,,,838,794,Graffiti,Graffiti,Mixed Use,11220,4522 6 AVENUE,BROOKLYN,N/A,Open,Open,2020-02-29 15:53:21,307,BROOKLYN,40.6464099886269,-74.00539091880418,"(40.6464099886269, -74.00539091880418)",Graffiti
45411726,2020,1,17,2020-01-17 06:22:17,,,838,794,Graffiti,Graffiti,Mixed Use,11208,1080 LIBERTY AVENUE,BROOKLYN,N/A,Open,Open,2020-02-29 15:53:21,305,BROOKLYN,40.67836475778504,-73.86934453135802,"(40.67836475778504, -73.86934453135802)",Graffiti
45411727,2020,1,17,2020-01-17 07:50:51,,,838,794,Graffiti,Graffiti,Mixed Use,11220,4918 4 AVENUE,BROOKLYN,N/A,Open,Open,2020-02-29 15:53:21,307,BROOKLYN,40.64687882956307,-74.0121656883803,"(40.64687882956307, -74.0121656883803)",Graffiti
45411729,2020,1,17,2020-01-17 08:51:00,,,838,-78,Graffiti,Graffiti,Mixed Use,11213,75 KINGSTON AVENUE,BROOKLYN,N/A,Open,Open,2022-07-21 02:22:26,308,BROOKLYN,40.67727397972817,-73.94144396290937,"(40.67727397972817, -73.94144396290937)",Graffiti
45411730,2020,1,17,2020-01-17 09:21:15,,,838,794,Graffiti,Graffiti,Mixed Use,11226,860 FLATBUSH AVENUE,BROOKLYN,N/A,Open,Open,2020-02-29 15:53:21,314,BROOKLYN,40.65139556111386,-73.9589812665319,"(40.65139556111386, -73.9589812665319)",Graffiti
45411737,2020,1,17,2020-01-17 08:47:15,,,838,794,Graffiti,Graffiti,Mixed Use,11213,131 KINGSTON AVENUE,BROOKLYN,N/A,Open,Open,2020-02-29 15:53:21,308,BROOKLYN,40.675352729648694,-73.94162590576586,"(40.675352729648694, -73.94162590576586)",Graffiti
45412113,2020,1,17,2020-01-17 09:02:50,,,838,794,Graffiti,Graffiti,,11226,2418 CHURCH AVENUE,BROOKLYN,N/A,Open,Open,2020-02-29 15:53:21,317,BROOKLYN,40.65053242054809,-73.95554018879203,"(40.65053242054809, -73.95554018879203)",Graffiti
45412503,2020,1,17,2020-01-17 16:42:52,,,837,794,Graffiti,Graffiti,Comercial,11238,945 ATLANTIC AVENUE,BROOKLYN,N/A,Open,Open,2020-02-29 15:53:21,302,BROOKLYN,40.68036459405283,-73.96083104032202,"(40.68036459405283, -73.96083104032202)",Graffiti
45412512,2020,1,17,2020-01-17 09:17:41,,,838,809,Graffiti,Graffiti,Comercial,11218,13 CHURCH AVENUE,BROOKLYN,N/A,Open,Open,2020-02-15 10:58:00,312,BROOKLYN,40.64140234416917,-73.98281953742926,"(40.64140234416917, -73.98281953742926)",Graffiti
45412533,2020,1,17,2020-01-17 08:23:47,,,838,794,Graffiti,Graffiti,Comercial,11216,28 ARLINGTON PLACE,BROOKLYN,N/A,Open,Open,2020-02-29 15:53:21,303,BROOKLYN,40.6808220331609,-73.95119710191454,"(40.6808220331609, -73.95119710191454)",Graffiti
45412537,2020,1,17,2020-01-17 09:21:51,,,838,794,Graffiti,Graffiti,Comercial,11213,1585 FULTON STREET,BROOKLYN,N/A,Open,Open,2020-02-29 15:53:21,303,BROOKLYN,40.67975881576671,-73.93776792103625,"(40.67975881576671, -73.93776792103625)",Graffiti
45412543,2020,1,17,2020-01-17 09:22:34,,,838,794,Graffiti,Graffiti,Comercial,11226,815 FLATBUSH AVENUE,BROOKLYN,N/A,Open,Open,2020-02-29 15:53:21,314,BROOKLYN,40.65270217978774,-73.95926877482995,"(40.65270217978774, -73.95926877482995)",Graffiti
45412551,2020,1,17,2020-01-17 10:20:41,,,838,794,Graffiti,Graffiti,Comercial,11232,4312 SECOND AVENUE,BROOKLYN,N/A,Open,Open,2020-02-29 15:53:21,307,BROOKLYN,40.65288157950769,-74.01299207722816,"(40.65288157950769, -74.01299207722816)",Graffiti
45412823,2020,1,17,2020-01-17 08:16:01,,,838,794,Graffiti,Graffiti,Mixed Use,11220,6002 FIFTH AVENUE,BROOKLYN,N/A,Open,Open,2020-02-29 15:53:21,307,BROOKLYN,40.6393905477514,-74.01627554733756,"(40.6393905477514, -74.01627554733756)",Graffiti
45412827,2020,1,17,2020-01-17 09:29:08,,,838,794,Graffiti,Graffiti,Mixed Use,11218,3823 FORT HAMILTON PARKWAY,BROOKLYN,N/A,Open,Open,2020-02-29 15:53:21,312,BROOKLYN,40.6434919734316,-73.9899897610099,"(40.6434919734316, -73.9899897610099)",Graffiti
45412828,2020,1,17,2020-01-17 10:09:33,,,838,794,Graffiti,Graffiti,Mixed Use,11221,378B MARCUS GARVEY BOULEVARD,BROOKLYN,N/A,Open,Open,2020-02-29 15:53:21,303,BROOKLYN,40.68411504641835,-73.93827945553285,"(40.68411504641835, -73.93827945553285)",Graffiti
45412840,2020,1,17,2020-01-17 08:15:28,,,838,794,Graffiti,Graffiti,Mixed Use,11217,113 5 AVENUE,BROOKLYN,N/A,Open,Open,2020-02-29 15:53:21,306,BROOKLYN,40.67921645705702,-73.97855190316689,"(40.67921645705702, -73.97855190316689)",Graffiti
45413212,2020,1,17,2020-01-17 09:22:09,,,838,794,Graffiti,Graffiti,Residential,11206,332 HART STREET,BROOKLYN,N/A,Open,Open,2020-02-29 15:53:21,303,BROOKLYN,40.69436403463595,-73.93830602937948,"(40.69436403463595, -73.93830602937948)",Graffiti
45413592,2020,1,17,2020-01-17 08:47:44,,,838,794,Graffiti,Graffiti,Comercial,11213,324 UTICA AVENUE,BROOKLYN,N/A,Open,Open,2020-02-29 15:53:21,309,BROOKLYN,40.66683548603916,-73.93132042804545,"(40.66683548603916, -73.93132042804545)",Graffiti
45413597,2020,1,17,2020-01-17 09:44:27,,,838,794,Graffiti,Graffiti,Comercial,11214,2218 86 STREET,BROOKLYN,N/A,Open,Open,2020-02-29 15:53:21,311,BROOKLYN,40.60167258234659,-73.99338110327116,"(40.60167258234659, -73.99338110327116)",Graffiti
45413602,2020,1,17,2020-01-17 19:10:10,,,837,794,Graffiti,Graffiti,Comercial,11101,23-57 51 AVENUE,Long Island City,N/A,Open,Open,2020-02-29 15:53:21,402,QUEENS,40.74062030203699,-73.94694922208251,"(40.74062030203699, -73.94694922208251)",Graffiti
45413621,2020,1,17,2020-01-17 07:32:51,,,838,794,Graffiti,Graffiti,Comercial,11214,2085 86 STREET,BROOKLYN,N/A,Open,Open,2020-02-29 15:53:21,311,BROOKLYN,40.603459577345504,-73.99634114305533,"(40.603459577345504, -73.99634114305533)",Graffiti
45413627,2020,1,17,2020-01-17 09:32:45,,,838,794,Graffiti,Graffiti,Comercial,11226,759 FLATBUSH AVENUE,BROOKLYN,N/A,Open,Open,2020-02-29 15:53:21,314,BROOKLYN,40.654272302888934,-73.95957415454795,"(40.654272302888934, -73.95957415454795)",Graffiti
45413628,2020,1,17,2020-01-17 09:46:02,,,838,794,Graffiti,Graffiti,Comercial,11218,404 CHURCH AVENUE,BROOKLYN,N/A,Open,Open,2020-02-29 15:53:21,312,BROOKLYN,40.64406090597673,-73.97641556030263,"(40.64406090597673, -73.97641556030263)",Graffiti
45413894,2020,1,17,2020-01-17 07:13:58,,,838,794,Graffiti,Graffiti,Mixed Use,11220,5419 4 AVENUE,BROOKLYN,N/A,Open,Open,2020-02-29 15:53:21,307,BROOKLYN,40.64406782751063,-74.01506233269002,"(40.64406782751063, -74.01506233269002)",Graffiti
45413895,2020,1,17,2020-01-17 07:30:18,,,838,794,Graffiti,Graffiti,Mixed Use,11209,488 85 STREET,BROOKLYN,N/A,Open,Open,2020-02-29 15:53:21,310,BROOKLYN,40.62245336904245,-74.02619564927603,"(40.62245336904245, -74.02619564927603)",Graffiti
45413896,2020,1,17,2020-01-17 08:51:23,,,838,794,Graffiti,Graffiti,Mixed Use,11213,412 UTICA AVENUE,BROOKLYN,N/A,Open,Open,2020-02-29 15:53:21,309,BROOKLYN,40.66447785143458,-73.93153912747638,"(40.66447785143458, -73.93153912747638)",Graffiti
45413897,2020,1,17,2020-01-17 09:06:29,,,838,794,Graffiti,Graffiti,Mixed Use,11226,2531 CHURCH AVENUE,BROOKLYN,N/A,Open,Open,2020-02-29 15:53:21,317,BROOKLYN,40.65063865901432,-73.95349677233544,"(40.65063865901432, -73.95349677233544)",Graffiti
45413899,2020,1,17,2020-01-17 09:07:50,,,838,794,Graffiti,Graffiti,Mixed Use,11220,5921 7 AVENUE,BROOKLYN,N/A,Open,Open,2020-02-29 15:53:21,307,BROOKLYN,40.63722825017492,-74.01132441611138,"(40.63722825017492, -74.01132441611138)",Graffiti
45413912,2020,1,17,2020-01-17 08:20:31,,,838,794,Graffiti,Graffiti,Mixed Use,11238,1084 FULTON STREET,BROOKLYN,N/A,Open,Open,2020-02-29 15:53:21,303,BROOKLYN,40.68152723392198,-73.95760347665852,"(40.68152723392198, -73.95760347665852)",Graffiti
45413914,2020,1,17,2020-01-17 09:18:03,,,838,794,Graffiti,Graffiti,Mixed Use,11228,7201 FT HAMILTON PARKWAY,BROOKLYN,N/A,Open,Open,2020-02-29 15:53:21,310,BROOKLYN,40.627171003636555,-74.01438484875212,"(40.627171003636555, -74.01438484875212)",Graffiti
45414986,2020,1,17,2020-01-17 07:14:53,,,838,794,Graffiti,Graffiti,Mixed Use,11220,5403 4 AVENUE,BROOKLYN,N/A,Open,Open,2020-02-29 15:53:21,307,BROOKLYN,40.6441337112897,-74.01499388234582,"(40.6441337112897, -74.01499388234582)",Graffiti
45414987,2020,1,17,2020-01-17 08:14:14,,,838,-78,Graffiti,Graffiti,Mixed Use,11215,722 FIFTH AVENUE,BROOKLYN,N/A,Open,Open,2022-07-21 02:22:26,307,BROOKLYN,40.66031779339649,-73.99450703666488,"(40.66031779339649, -73.99450703666488)",Graffiti
45415000,2020,1,17,2020-01-17 06:41:39,,,838,794,Graffiti,Graffiti,Mixed Use,11208,480 GRANT AVENUE,BROOKLYN,N/A,Open,Open,2020-02-29 15:53:21,305,BROOKLYN,40.67918476457543,-73.86636131653226,"(40.67918476457543, -73.86636131653226)",Graffiti
45415002,2020,1,17,2020-01-17 07:23:52,,,838,794,Graffiti,Graffiti,Mixed Use,11220,4914 4 AVENUE,BROOKLYN,N/A,Open,Open,2020-02-29 15:53:21,307,BROOKLYN,40.646895299789946,-74.01215127705704,"(40.646895299789946, -74.01215127705704)",Graffiti
45415008,2020,1,17,2020-01-17 09:48:00,,,838,38,Graffiti,Graffiti,Mixed Use,11221,75 MALCOLM X BOULEVARD,BROOKLYN,N/A,Open,Open,2022-03-27 11:56:38,303,BROOKLYN,40.69131302046604,-73.93071465188545,"(40.69131302046604, -73.93071465188545)",Graffiti
45415009,2020,1,17,2020-01-17 09:59:18,,,838,794,Graffiti,Graffiti,Mixed Use,11214,2274 86 STREET,BROOKLYN,N/A,Open,Open,2020-02-29 15:53:21,311,BROOKLYN,40.60082435310647,-73.99201277124904,"(40.60082435310647, -73.99201277124904)",Graffiti
45415018,2020,1,17,2020-01-17 08:44:58,,,838,794,Graffiti,Graffiti,Mixed Use,11215,514 4 AVENUE,BROOKLYN,N/A,Open,Open,2020-02-29 15:53:21,306,BROOKLYN,40.66785746396845,-73.99081158381215,"(40.66785746396845, -73.99081158381215)",Graffiti
45415019,2020,1,17,2020-01-17 10:10:25,,,838,794,Graffiti,Graffiti,Mixed Use,11223,2851 86 STREET,BROOKLYN,N/A,Open,Open,2020-02-29 15:53:21,315,BROOKLYN,40.59207749610423,-73.97747810090978,"(40.59207749610423, -73.97747810090978)",Graffiti
45415022,2020,1,17,2020-01-17 07:54:55,,,838,794,Graffiti,Graffiti,Mixed Use,11220,606 56 STREET,BROOKLYN,N/A,Open,Open,2020-02-29 15:53:21,307,BROOKLYN,40.64015146066703,-74.01119159316576,"(40.64015146066703, -74.01119159316576)",Graffiti
45415023,2020,1,17,2020-01-17 08:04:46,,,838,794,Graffiti,Graffiti,Mixed Use,11232,4114 FIFTH AVENUE,BROOKLYN,N/A,Open,Open,2020-02-29 15:53:21,307,BROOKLYN,40.650008407207295,-74.00522904082447,"(40.650008407207295, -74.00522904082447)",Graffiti
45415025,2020,1,17,2020-01-17 08:24:22,,,838,794,Graffiti,Graffiti,Mixed Use,11220,6301 5 AVENUE,BROOKLYN,N/A,Open,Open,2020-02-29 15:53:21,307,BROOKLYN,40.6376912660823,-74.0180118196567,"(40.6376912660823, -74.0180118196567)",Graffiti
45415024,2020,1,17,2020-01-17 08:24:07,,,838,-78,Graffiti,Graffiti,Mixed Use,11216,1257 FULTON STREET,BROOKLYN,N/A,Open,Open,2022-07-21 02:22:26,303,BROOKLYN,40.68047332742575,-73.95091613617038,"(40.68047332742575, -73.95091613617038)",Graffiti
45415389,2020,1,17,2020-01-17 09:35:11,,,838,794,Graffiti,Graffiti,,11211,117 MARCY AVENUE,BROOKLYN,N/A,Open,Open,2020-02-29 15:53:21,301,BROOKLYN,40.710069798521985,-73.95685310218474,"(40.710069798521985, -73.95685310218474)",Graffiti
45415416,2020,1,17,2020-01-17 10:45:48,,,838,794,Graffiti,Graffiti,Residential,11413,142-02 230 PLACE,Springfield Gardens,N/A,Open,Open,2020-02-29 15:53:21,413,QUEENS,40.665247346665026,-73.74611154401074,"(40.665247346665026, -73.74611154401074)",Graffiti
45415761,2020,1,17,2020-01-17 08:54:05,,,838,794,Graffiti,Graffiti,Comercial,11203,654 UTICA AVENUE,BROOKLYN,N/A,Open,Open,2020-02-29 15:53:21,309,BROOKLYN,40.65748932428751,-73.93100928028147,"(40.65748932428751, -73.93100928028147)",Graffiti
45415763,2020,1,17,2020-01-17 09:39:37,,,838,794,Graffiti,Graffiti,Comercial,11214,2173 86 STREET,BROOKLYN,N/A,Open,Open,2020-02-29 15:53:21,311,BROOKLYN,40.60224080307827,-73.99427053628109,"(40.60224080307827, -73.99427053628109)",Graffiti
45415803,2020,1,17,2020-01-17 10:12:37,,,838,794,Graffiti,Graffiti,Comercial,11232,4223 2 AVENUE,BROOKLYN,N/A,Open,Open,2020-02-29 15:53:21,307,BROOKLYN,40.65339217029241,-74.0124371710523,"(40.65339217029241, -74.0124371710523)",Graffiti
45415807,2020,1,17,2020-01-17 09:54:55,,,838,794,Graffiti,Graffiti,Comercial,11214,2261B 86 STREET,BROOKLYN,N/A,Open,Open,2020-02-29 15:53:21,311,BROOKLYN,40.60095886053827,-73.9921928102724,"(40.60095886053827, -73.9921928102724)",Graffiti
45415808,2020,1,17,2020-01-17 15:33:30,,,837,794,Graffiti,Graffiti,Comercial,11375,97-15 METROPOLITAN AVENUE,Forest Hills,N/A,Open,Open,2020-02-29 15:53:21,406,QUEENS,40.71118376607609,-73.85538580067248,"(40.71118376607609, -73.85538580067248)",Graffiti
45416046,2020,1,17,2020-01-17 08:26:14,,,838,794,Graffiti,Graffiti,Mixed Use,11221,1269 BROADWAY,BROOKLYN,N/A,Open,Open,2020-02-29 15:53:21,304,BROOKLYN,40.69109799155862,-73.92484795930655,"(40.69109799155862, -73.92484795930655)",Graffiti
45416047,2020,1,17,2020-01-17 19:12:18,,,837,794,Graffiti,Graffiti,Mixed Use,10468,2641 JEROME AVENUE,BRONX,N/A,Open,Open,2020-02-29 15:53:21,207,BRONX,40.866841945252474,-73.8979018657573,"(40.866841945252474, -73.8979018657573)",Graffiti
45416095,2020,1,17,2020-01-17 09:39:57,,,838,794,Graffiti,Graffiti,Mixed Use,11226,727 FLATBUSH AVENUE,BROOKLYN,N/A,Open,Open,2020-02-29 15:53:21,309,BROOKLYN,40.65523853408005,-73.95976818680384,"(40.65523853408005, -73.95976818680384)",Graffiti
45416096,2020,1,17,2020-01-17 09:51:38,,,838,794,Graffiti,Graffiti,Mixed Use,11214,2233 86 STREET,BROOKLYN,N/A,Open,Open,2020-02-29 15:53:21,311,BROOKLYN,40.60135689809273,-73.99283736488036,"(40.60135689809273, -73.99283736488036)",Graffiti
45416421,2020,1,17,2020-01-17 08:13:19,,,838,,Graffiti,Graffiti,,11216,659 LAFAYETTE AVENUE,BROOKLYN,N/A,Open,Open,,303,BROOKLYN,40.690298223146186,-73.94776453459379,"(40.690298223146186, -73.94776453459379)",Graffiti
45416471,2020,1,17,2020-01-17 09:43:11,,,838,809,Graffiti,Graffiti,Residential,11221,474 VAN BUREN STREET,BROOKLYN,N/A,Open,Open,2020-02-15 10:59:59,303,BROOKLYN,40.69163613637303,-73.92945221585704,"(40.69163613637303, -73.92945221585704)",Graffiti
45417579,2020,1,18,2020-01-18 12:32:11,,,836,794,Graffiti,Graffiti,Comercial,11220,530 63 STREET,BROOKLYN,N/A,Open,Open,2020-02-29 15:53:21,307,BROOKLYN,40.637290660505386,-74.01713977028886,"(40.637290660505386, -74.01713977028886)",Graffiti
45418146,2020,1,18,2020-01-18 22:54:51,,,836,794,Graffiti,Graffiti,Residential,11105,21-12 28 STREET,Astoria,N/A,Open,Open,2020-02-29 15:53:21,401,QUEENS,40.7786949714004,-73.9107106345022,"(40.7786949714004, -73.9107106345022)",Graffiti
45418461,2020,1,18,2020-01-18 10:37:02,,,837,326,Graffiti,Graffiti,Comercial,10027,615 WEST  131 STREET,NEW YORK,N/A,Open,Open,2021-06-12 09:40:37,109,MANHATTAN,40.81789182008276,-73.95771892213459,"(40.81789182008276, -73.95771892213459)",Graffiti
45448977,2020,1,22,2020-01-22 16:16:36,,,832,794,Graffiti,Graffiti,Mixed Use,11372,71-22 35 AVENUE,Jackson Heights,N/A,Open,Open,2020-02-29 15:53:21,403,QUEENS,40.75073713942023,-73.89461497929214,"(40.75073713942023, -73.89461497929214)",Graffiti
45890876,2020,3,24,2020-03-24 07:41:35,,,771,38,Graffiti,Graffiti,Comercial,11358,45-19 162 STREET,FLUSHING,N/A,Open,Open,2022-03-27 11:45:19,407,QUEENS,40.75566449434149,-73.80461584686066,"(40.75566449434149, -73.80461584686066)",Graffiti
45449838,2020,1,22,2020-01-22 19:04:46,,,832,794,Graffiti,Graffiti,Comercial,11101,41-31 37 STREET,Long Island City,N/A,Open,Open,2020-02-29 15:53:21,402,QUEENS,40.74722721038087,-73.92736508398339,"(40.74722721038087, -73.92736508398339)",Graffiti
45451152,2020,1,22,2020-01-22 17:16:33,,,832,794,Graffiti,Graffiti,Mixed Use,10011,25 7 AVENUE,NEW YORK,N/A,Open,Open,2020-02-29 15:53:21,102,MANHATTAN,40.73741841503639,-74.0004943613952,"(40.73741841503639, -74.0004943613952)",Graffiti
45452122,2020,1,22,2020-01-22 14:05:55,,,832,794,Graffiti,Graffiti,Comercial,10474,1335 EAST BAY AVENUE,BRONX,N/A,Open,Open,2020-02-29 15:53:21,202,BRONX,40.80897776581899,-73.88326303786351,"(40.80897776581899, -73.88326303786351)",Graffiti
45452807,2020,1,23,2020-01-23 12:39:33,,,831,794,Graffiti,Graffiti,Mixed Use,10013,15 GREENE STREET,NEW YORK,N/A,Open,Open,2020-02-29 15:53:21,102,MANHATTAN,40.720974551465126,-74.00277062682252,"(40.720974551465126, -74.00277062682252)",Graffiti
45740617,2020,3,3,2020-03-03 14:22:18,,,791,326,Graffiti,Graffiti,Comercial,10454,254 EAST  134 STREET,BRONX,N/A,Open,Open,2021-06-12 09:40:37,201,BRONX,40.808548694720194,-73.92947640205068,"(40.808548694720194, -73.92947640205068)",Graffiti
45456001,2020,1,23,2020-01-23 16:54:20,,,831,326,Graffiti,Graffiti,Residential,11206,361 VERNON AVENUE,BROOKLYN,N/A,Open,Open,2021-06-12 09:40:37,303,BROOKLYN,40.696100435884716,-73.93640032684353,"(40.696100435884716, -73.93640032684353)",Graffiti
45457129,2020,1,23,2020-01-23 17:07:54,,,831,,Graffiti,Graffiti,,10314,73 RICHMOND HILL ROAD,STATEN ISLAND,N/A,Open,Open,,502,STATEN ISLAND,40.58787868596706,-74.16571556825863,"(40.58787868596706, -74.16571556825863)",Graffiti
45458164,2020,1,23,2020-01-23 13:25:41,,,831,,Graffiti,Graffiti,,11207,1086 DECATUR STREET,BROOKLYN,N/A,Open,Open,,304,BROOKLYN,40.68647321069871,-73.90978846495815,"(40.68647321069871, -73.90978846495815)",Graffiti
45745758,2020,3,3,2020-03-03 06:41:49,,,792,38,Graffiti,Graffiti,Mixed Use,11216,1219 ATLANTIC AVENUE,BROOKLYN,N/A,Open,Open,2022-03-27 11:59:47,303,BROOKLYN,40.678507890835554,-73.95049936906851,"(40.678507890835554, -73.95049936906851)",Graffiti
45460277,2020,1,23,2020-01-23 13:54:40,,,831,794,Graffiti,Graffiti,Mixed Use,11211,366 BROADWAY,BROOKLYN,N/A,Open,Open,2020-02-29 15:53:21,301,BROOKLYN,40.707436901951816,-73.95510548178305,"(40.707436901951816, -73.95510548178305)",Graffiti
45460681,2020,1,23,2020-01-23 11:47:02,,,832,794,Graffiti,Graffiti,Comercial,10457,503 EAST TREMONT AVENUE,BRONX,N/A,Open,Open,2020-02-29 15:53:21,206,BRONX,40.84680194969188,-73.89686637246393,"(40.84680194969188, -73.89686637246393)",Graffiti
45460696,2020,1,23,2020-01-23 13:53:27,,,831,326,Graffiti,Graffiti,Comercial,11229,1660 EAST   14 STREET,BROOKLYN,N/A,Open,Open,2021-06-12 09:40:37,315,BROOKLYN,40.60906279165911,-73.95929900170295,"(40.60906279165911, -73.95929900170295)",Graffiti
45461668,2020,1,24,2020-01-24 16:11:55,,,830,794,Graffiti,Graffiti,Comercial,10012,283 LAFAYETTE STREET,NEW YORK,N/A,Open,Open,2020-02-29 15:53:21,102,MANHATTAN,40.72406786280703,-73.99614691823864,"(40.72406786280703, -73.99614691823864)",Graffiti
45985471,2020,4,11,2020-04-11 14:43:44,,,752,326,Graffiti,Graffiti,Comercial,10308,4116 HYLAN BOULEVARD,STATEN ISLAND,N/A,Open,Open,2021-06-12 09:40:37,503,STATEN ISLAND,40.53941249356837,-74.14843032340984,"(40.53941249356837, -74.14843032340984)",Graffiti
45461849,2020,1,24,2020-01-24 14:59:09,,,830,794,Graffiti,Graffiti,Mixed Use,10040,515 AUDUBON AVENUE,NEW YORK,N/A,Open,Open,2020-02-29 15:53:21,112,MANHATTAN,40.85478242577978,-73.92790914422996,"(40.85478242577978, -73.92790914422996)",Graffiti
45440319,2020,1,21,2020-01-21 12:50:09,,,833,326,Graffiti,Graffiti,Comercial,11236,1365 ROCKAWAY PARKWAY,BROOKLYN,N/A,Open,Open,2021-06-12 09:40:37,318,BROOKLYN,40.64642472369348,-73.90373818535268,"(40.64642472369348, -73.90373818535268)",Graffiti
45440317,2020,1,21,2020-01-21 13:39:26,,,833,794,Graffiti,Graffiti,Comercial,11208,988 HEGEMAN AVENUE,BROOKLYN,N/A,Open,Open,2020-02-29 15:53:21,305,BROOKLYN,40.666484926058345,-73.8764076708377,"(40.666484926058345, -73.8764076708377)",Graffiti
45440318,2020,1,21,2020-01-21 12:56:37,,,833,794,Graffiti,Graffiti,Comercial,11212,441 SUTTER AVENUE,BROOKLYN,N/A,Open,Open,2020-02-29 15:53:21,316,BROOKLYN,40.66823954176522,-73.90289203144609,"(40.66823954176522, -73.90289203144609)",Graffiti
45440320,2020,1,21,2020-01-21 12:49:19,,,833,794,Graffiti,Graffiti,Comercial,11236,10424 FLATLANDS AVENUE,BROOKLYN,N/A,Open,Open,2020-02-29 15:53:21,318,BROOKLYN,40.64719675306825,-73.8951713137914,"(40.64719675306825, -73.8951713137914)",Graffiti
45440328,2020,1,21,2020-01-21 11:40:23,,,834,794,Graffiti,Graffiti,Comercial,11208,3443 ATLANTIC AVENUE,BROOKLYN,N/A,Open,Open,2020-02-29 15:53:21,305,BROOKLYN,40.68222979878838,-73.86969390268031,"(40.68222979878838, -73.86969390268031)",Graffiti
45440329,2020,1,21,2020-01-21 08:53:30,,,834,794,Graffiti,Graffiti,Comercial,11201,205 PLYMOUTH STREET,BROOKLYN,N/A,Open,Open,2020-02-29 15:53:21,302,BROOKLYN,40.70371731637473,-73.98520911550762,"(40.70371731637473, -73.98520911550762)",Graffiti
45440353,2020,1,21,2020-01-21 09:05:25,,,834,794,Graffiti,Graffiti,Comercial,11205,81 STEUBEN STREET,BROOKLYN,N/A,Open,Open,2020-02-29 15:53:21,302,BROOKLYN,40.6950197647379,-73.96337921441484,"(40.6950197647379, -73.96337921441484)",Graffiti
45440354,2020,1,21,2020-01-21 08:54:07,,,834,809,Graffiti,Graffiti,Comercial,11201,216 PLYMOUTH STREET,BROOKLYN,N/A,Open,Open,2020-02-15 11:03:50,302,BROOKLYN,40.703700840355104,-73.98515141272684,"(40.703700840355104, -73.98515141272684)",Graffiti
45440370,2020,1,21,2020-01-21 13:26:56,,,833,794,Graffiti,Graffiti,Comercial,11236,1431 ROCKAWAY PARKWAY,BROOKLYN,N/A,Open,Open,2020-02-29 15:53:21,318,BROOKLYN,40.64501257659062,-73.90216550099252,"(40.64501257659062, -73.90216550099252)",Graffiti
45440371,2020,1,21,2020-01-21 09:54:35,,,834,794,Graffiti,Graffiti,Comercial,11226,2038 BEDFORD AVENUE,BROOKLYN,N/A,Open,Open,2020-02-29 15:53:21,314,BROOKLYN,40.65481731213317,-73.95628696727209,"(40.65481731213317, -73.95628696727209)",Graffiti
45440829,2020,1,21,2020-01-21 10:21:25,,,834,809,Graffiti,Graffiti,Residential,11226,639 ROGERS AVENUE,BROOKLYN,N/A,Open,Open,2020-02-15 11:09:03,309,BROOKLYN,40.655875510228185,-73.95302098907497,"(40.655875510228185, -73.95302098907497)",Graffiti
45440830,2020,1,21,2020-01-21 10:02:05,,,834,794,Graffiti,Graffiti,Residential,11225,177 LINCOLN ROAD,BROOKLYN,N/A,Open,Open,2020-02-29 15:53:21,309,BROOKLYN,40.66122640361895,-73.956362063226,"(40.66122640361895, -73.956362063226)",Graffiti
45440833,2020,1,21,2020-01-21 13:30:14,,,833,,Graffiti,Graffiti,,11212,591 ROCKAWAY AVENUE,BROOKLYN,N/A,Open,Open,,316,BROOKLYN,40.665486545653806,-73.90965103728894,"(40.665486545653806, -73.90965103728894)",Graffiti
45440839,2020,1,21,2020-01-21 10:12:02,,,834,794,Graffiti,Graffiti,Residential,11221,872 DEKALB AVENUE,BROOKLYN,N/A,Open,Open,2020-02-29 15:53:21,303,BROOKLYN,40.69253478287311,-73.94118895517786,"(40.69253478287311, -73.94118895517786)",Graffiti
45440840,2020,1,21,2020-01-21 09:46:25,,,834,794,Graffiti,Graffiti,Residential,11237,298 IRVING AVENUE,BROOKLYN,N/A,Open,Open,2020-02-29 15:53:21,304,BROOKLYN,40.69903956951976,-73.91443093224304,"(40.69903956951976, -73.91443093224304)",Graffiti
45440843,2020,1,21,2020-01-21 13:30:10,,,833,794,Graffiti,Graffiti,Residential,11249,254 KENT AVENUE,BROOKLYN,N/A,Open,Open,2020-02-29 15:53:21,301,BROOKLYN,40.71649829553627,-73.96581319318369,"(40.71649829553627, -73.96581319318369)",Graffiti
45440846,2020,1,21,2020-01-21 12:24:28,,,833,794,Graffiti,Graffiti,Residential,11221,801 DEKALB AVENUE,BROOKLYN,N/A,Open,Open,2020-02-29 15:53:21,303,BROOKLYN,40.6922123697922,-73.94413897337319,"(40.6922123697922, -73.94413897337319)",Graffiti
45440852,2020,1,21,2020-01-21 11:31:13,,,834,326,Graffiti,Graffiti,Residential,10312,89 SYLVIA STREET,STATEN ISLAND,N/A,Open,Open,2021-06-12 09:40:37,503,STATEN ISLAND,40.54389698914127,-74.16869361305935,"(40.54389698914127, -74.16869361305935)",Graffiti
45440863,2020,1,21,2020-01-21 13:35:04,,,833,794,Graffiti,Graffiti,,11249,135 KENT AVENUE,BROOKLYN,N/A,Open,Open,2020-02-29 15:53:21,301,BROOKLYN,40.719681150342815,-73.96239163414805,"(40.719681150342815, -73.96239163414805)",Graffiti
45440870,2020,1,21,2020-01-21 09:58:28,,,834,794,Graffiti,Graffiti,,11237,110 WYCKOFF AVENUE,BROOKLYN,N/A,Open,Open,2020-02-29 15:53:21,304,BROOKLYN,40.70396402527991,-73.91869129960794,"(40.70396402527991, -73.91869129960794)",Graffiti
45441121,2020,1,21,2020-01-21 13:02:41,,,833,794,Graffiti,Graffiti,Mixed Use,11208,1091 LIBERTY AVENUE,BROOKLYN,N/A,Open,Open,2020-02-29 15:53:21,305,BROOKLYN,40.67841664208191,-73.86911008593383,"(40.67841664208191, -73.86911008593383)",Graffiti
45441125,2020,1,21,2020-01-21 10:42:26,,,834,794,Graffiti,Graffiti,Mixed Use,11203,4901 CHURCH AVENUE,BROOKLYN,N/A,Open,Open,2020-02-29 15:53:21,317,BROOKLYN,40.65170346057246,-73.93123870161185,"(40.65170346057246, -73.93123870161185)",Graffiti
45441123,2020,1,21,2020-01-21 11:46:36,,,834,38,Graffiti,Graffiti,Mixed Use,11207,2748 ATLANTIC AVENUE,BROOKLYN,N/A,Open,Open,2022-03-27 11:56:38,305,BROOKLYN,40.67617398126277,-73.89281485475861,"(40.67617398126277, -73.89281485475861)",Graffiti
45441126,2020,1,21,2020-01-21 10:31:16,,,834,794,Graffiti,Graffiti,Mixed Use,11218,1105 CHURCH AVENUE,BROOKLYN,N/A,Open,Open,2020-02-29 15:53:21,314,BROOKLYN,40.6470592376549,-73.96915686901305,"(40.6470592376549, -73.96915686901305)",Graffiti
45441127,2020,1,21,2020-01-21 10:13:12,,,834,794,Graffiti,Graffiti,Mixed Use,11221,866 DEKALB AVENUE,BROOKLYN,N/A,Open,Open,2020-02-29 15:53:21,303,BROOKLYN,40.69251292590868,-73.94138730708843,"(40.69251292590868, -73.94138730708843)",Graffiti
45441130,2020,1,21,2020-01-21 08:55:51,,,834,794,Graffiti,Graffiti,Mixed Use,11221,940 MADISON STREET,BROOKLYN,N/A,Open,Open,2020-02-29 15:53:21,303,BROOKLYN,40.68820737307374,-73.92021413834922,"(40.68820737307374, -73.92021413834922)",Graffiti
45441157,2020,1,21,2020-01-21 14:04:54,,,833,794,Graffiti,Graffiti,Mixed Use,11237,1540 GATES AVENUE,BROOKLYN,N/A,Open,Open,2020-02-29 15:53:21,304,BROOKLYN,40.699128756440984,-73.91258073116563,"(40.699128756440984, -73.91258073116563)",Graffiti
45441158,2020,1,21,2020-01-21 13:18:49,,,833,794,Graffiti,Graffiti,Mixed Use,11207,2859 FULTON STREET,BROOKLYN,N/A,Open,Open,2020-02-29 15:53:21,305,BROOKLYN,40.67851184278012,-73.88919138334924,"(40.67851184278012, -73.88919138334924)",Graffiti
45441160,2020,1,21,2020-01-21 12:25:56,,,833,38,Graffiti,Graffiti,Mixed Use,11216,759 DEKALB AVENUE,BROOKLYN,N/A,Open,Open,2022-03-27 11:56:38,303,BROOKLYN,40.691977312521956,-73.94622344915649,"(40.691977312521956, -73.94622344915649)",Graffiti
45441162,2020,1,21,2020-01-21 10:10:41,,,834,794,Graffiti,Graffiti,Mixed Use,11221,901 DEKALB AVENUE,BROOKLYN,N/A,Open,Open,2020-02-29 15:53:21,303,BROOKLYN,40.69260590633209,-73.94072010556816,"(40.69260590633209, -73.94072010556816)",Graffiti
45441163,2020,1,21,2020-01-21 10:07:11,,,834,794,Graffiti,Graffiti,Mixed Use,11221,4 MALCOLM X BOULEVARD,BROOKLYN,N/A,Open,Open,2020-02-29 15:53:21,303,BROOKLYN,40.694236563676434,-73.93132105171048,"(40.694236563676434, -73.93132105171048)",Graffiti
45441164,2020,1,21,2020-01-21 10:01:12,,,834,-78,Graffiti,Graffiti,Mixed Use,11237,119 WYCKOFF AVENUE,BROOKLYN,N/A,Open,Open,2022-07-21 02:22:26,304,BROOKLYN,40.704384425827975,-73.91933277780174,"(40.704384425827975, -73.91933277780174)",Graffiti
45441167,2020,1,21,2020-01-21 09:10:08,,,834,794,Graffiti,Graffiti,Mixed Use,11205,447 DEKALB AVENUE,BROOKLYN,N/A,Open,Open,2020-02-29 15:53:21,303,BROOKLYN,40.6904456814722,-73.9595053458562,"(40.6904456814722, -73.9595053458562)",Graffiti
45441169,2020,1,21,2020-01-21 23:30:11,,,833,794,Graffiti,Graffiti,Mixed Use,11216,573 NOSTRAND AVENUE,BROOKLYN,N/A,Open,Open,2020-02-29 15:53:21,308,BROOKLYN,40.677755496292434,-73.94974643035262,"(40.677755496292434, -73.94974643035262)",Graffiti
45441172,2020,1,21,2020-01-21 10:02:47,,,834,794,Graffiti,Graffiti,Mixed Use,11226,852 ROGERS AVENUE,BROOKLYN,N/A,Open,Open,2020-02-29 15:53:21,317,BROOKLYN,40.64986143442122,-73.95239456892855,"(40.64986143442122, -73.95239456892855)",Graffiti
45441184,2020,1,21,2020-01-21 10:30:21,,,834,794,Graffiti,Graffiti,Mixed Use,11226,3221 CHURCH AVENUE,BROOKLYN,N/A,Open,Open,2020-02-29 15:53:21,317,BROOKLYN,40.65092147440347,-73.94736651208454,"(40.65092147440347, -73.94736651208454)",Graffiti
45441185,2020,1,21,2020-01-21 10:07:37,,,834,794,Graffiti,Graffiti,Mixed Use,11221,1078 DEKALB AVENUE,BROOKLYN,N/A,Open,Open,2020-02-29 15:53:21,303,BROOKLYN,40.69363290802241,-73.93164622330171,"(40.69363290802241, -73.93164622330171)",Graffiti
45441183,2020,1,21,2020-01-21 12:48:38,,,833,326,Graffiti,Graffiti,Mixed Use,11236,9730 FLATLANDS AVENUE,BROOKLYN,N/A,Open,Open,2021-06-12 09:40:37,318,BROOKLYN,40.64386094383343,-73.90034025564863,"(40.64386094383343, -73.90034025564863)",Graffiti
45441436,2020,1,21,2020-01-21 10:46:14,,,834,794,Graffiti,Graffiti,Comercial,11212,9508 CHURCH AVENUE,BROOKLYN,N/A,Open,Open,2020-02-29 15:53:21,317,BROOKLYN,40.65524519557806,-73.91614496092777,"(40.65524519557806, -73.91614496092777)",Graffiti
45441439,2020,1,21,2020-01-21 09:05:55,,,834,794,Graffiti,Graffiti,Comercial,11205,67 STEUBEN STREET,BROOKLYN,N/A,Open,Open,2020-02-29 15:53:21,302,BROOKLYN,40.69538209701039,-73.96345113944916,"(40.69538209701039, -73.96345113944916)",Graffiti
45441493,2020,1,21,2020-01-21 12:42:26,,,833,794,Graffiti,Graffiti,Comercial,11208,1130 LIBERTY AVENUE,BROOKLYN,N/A,Open,Open,2020-02-29 15:53:21,305,BROOKLYN,40.678615294415,-73.8676098913961,"(40.678615294415, -73.8676098913961)",Graffiti
45441496,2020,1,21,2020-01-21 09:10:39,,,834,794,Graffiti,Graffiti,Comercial,11205,159 TAAFFE PLACE,BROOKLYN,N/A,Open,Open,2020-02-29 15:53:21,303,BROOKLYN,40.6936298048647,-73.96005154036278,"(40.6936298048647, -73.96005154036278)",Graffiti
45441666,2020,1,21,2020-01-21 09:53:39,,,834,794,Graffiti,Graffiti,Residential,11226,2031 BEDFORD AVENUE,BROOKLYN,N/A,Open,Open,2020-02-29 15:53:21,309,BROOKLYN,40.655212568811145,-73.95630833247121,"(40.655212568811145, -73.95630833247121)",Graffiti
45441671,2020,1,21,2020-01-21 12:28:13,,,833,794,Graffiti,Graffiti,Residential,11205,555 DEKALB AVENUE,BROOKLYN,N/A,Open,Open,2020-02-29 15:53:21,303,BROOKLYN,40.69105030393765,-73.95424387079706,"(40.69105030393765, -73.95424387079706)",Graffiti
45441676,2020,1,21,2020-01-21 10:12:36,,,834,794,Graffiti,Graffiti,Residential,11221,879A DEKALB AVENUE,BROOKLYN,N/A,Open,Open,2020-02-29 15:53:21,303,BROOKLYN,40.69253759023075,-73.94131155837381,"(40.69253759023075, -73.94131155837381)",Graffiti
45441680,2020,1,21,2020-01-21 13:23:21,,,833,809,Graffiti,Graffiti,,11211,291 BEDFORD AVENUE,BROOKLYN,N/A,Open,Open,2020-02-15 11:14:13,301,BROOKLYN,40.71398551492759,-73.9616120834638,"(40.71398551492759, -73.9616120834638)",Graffiti
45441685,2020,1,21,2020-01-21 09:50:13,,,834,,Graffiti,Graffiti,,11218,494 CHURCH AVENUE,BROOKLYN,N/A,Open,Open,,312,BROOKLYN,40.64429958482104,-73.97584973562208,"(40.64429958482104, -73.97584973562208)",Graffiti
45441686,2020,1,21,2020-01-21 09:37:52,,,834,794,Graffiti,Graffiti,,11212,81 EAST   98 STREET,BROOKLYN,N/A,Open,Open,2020-02-29 15:53:21,316,BROOKLYN,40.664853809905495,-73.92275084139706,"(40.664853809905495, -73.92275084139706)",Graffiti
45442336,2020,1,21,2020-01-21 10:31:09,,,834,794,Graffiti,Graffiti,Mixed Use,11225,247 ROGERS AVENUE,BROOKLYN,N/A,Open,Open,2020-02-29 15:53:21,309,BROOKLYN,40.66793350200779,-73.9534522719258,"(40.66793350200779, -73.9534522719258)",Graffiti
45442292,2020,1,21,2020-01-21 13:15:21,,,833,794,Graffiti,Graffiti,Mixed Use,11233,233 HOWARD AVENUE,BROOKLYN,N/A,Open,Open,2020-02-29 15:53:21,303,BROOKLYN,40.6799450379054,-73.91939839397406,"(40.6799450379054, -73.91939839397406)",Graffiti
45442293,2020,1,21,2020-01-21 13:04:57,,,833,809,Graffiti,Graffiti,Mixed Use,11208,945 LIBERTY AVENUE,BROOKLYN,N/A,Open,Open,2020-02-15 11:13:32,305,BROOKLYN,40.677632223994436,-73.87456636308669,"(40.677632223994436, -73.87456636308669)",Graffiti
45442295,2020,1,21,2020-01-21 09:21:02,,,834,794,Graffiti,Graffiti,Mixed Use,11215,228 4 AVENUE,BROOKLYN,N/A,Open,Open,2020-02-29 15:53:21,306,BROOKLYN,40.67721903261558,-73.98318885867944,"(40.67721903261558, -73.98318885867944)",Graffiti
45442328,2020,1,21,2020-01-21 13:23:02,,,833,809,Graffiti,Graffiti,Mixed Use,11211,301 BEDFORD AVENUE,BROOKLYN,N/A,Open,Open,2020-02-15 11:14:13,301,BROOKLYN,40.713604074662285,-73.96185759195937,"(40.713604074662285, -73.96185759195937)",Graffiti
45442337,2020,1,21,2020-01-21 10:09:53,,,834,794,Graffiti,Graffiti,Mixed Use,11221,894 DEKALB AVENUE,BROOKLYN,N/A,Open,Open,2020-02-29 15:53:21,303,BROOKLYN,40.692616751374175,-73.94046046007531,"(40.692616751374175, -73.94046046007531)",Graffiti
45442339,2020,1,21,2020-01-21 09:52:43,,,834,794,Graffiti,Graffiti,Mixed Use,11208,3452 FULTON STREET,BROOKLYN,N/A,Open,Open,2020-02-29 15:53:21,305,BROOKLYN,40.684764327157964,-73.8682503027429,"(40.684764327157964, -73.8682503027429)",Graffiti
45442348,2020,1,21,2020-01-21 10:18:51,,,834,794,Graffiti,Graffiti,Mixed Use,11221,591 KNICKERBOCKER AVENUE,BROOKLYN,N/A,Open,Open,2020-02-29 15:53:21,304,BROOKLYN,40.69634113677297,-73.91399443232372,"(40.69634113677297, -73.91399443232372)",Graffiti
45442347,2020,1,21,2020-01-21 12:46:52,,,833,326,Graffiti,Graffiti,Mixed Use,11236,8311 FLATLANDS AVENUE,BROOKLYN,N/A,Open,Open,2021-06-12 09:40:37,318,BROOKLYN,40.637037857220456,-73.91092900432263,"(40.637037857220456, -73.91092900432263)",Graffiti
45442576,2020,1,21,2020-01-21 12:42:29,,,833,794,Graffiti,Graffiti,Comercial,11226,846 FLATBUSH AVENUE,BROOKLYN,N/A,Open,Open,2020-02-29 15:53:21,314,BROOKLYN,40.651722218433754,-73.95906035023442,"(40.651722218433754, -73.95906035023442)",Graffiti
45442642,2020,1,21,2020-01-21 09:42:23,,,834,-78,Graffiti,Graffiti,Comercial,11237,250 MENAHAN STREET,BROOKLYN,N/A,Open,Open,2022-07-21 02:22:26,304,BROOKLYN,40.698772071501956,-73.91645806521873,"(40.698772071501956, -73.91645806521873)",Graffiti
45442665,2020,1,21,2020-01-21 12:49:42,,,833,794,Graffiti,Graffiti,Comercial,11207,642 SUTTER AVENUE,BROOKLYN,N/A,Open,Open,2020-02-29 15:53:21,305,BROOKLYN,40.66939366015754,-73.89501025944065,"(40.66939366015754, -73.89501025944065)",Graffiti
45442685,2020,1,21,2020-01-21 12:48:14,,,833,326,Graffiti,Graffiti,Comercial,11236,9621 FLATLANDS AVENUE,BROOKLYN,N/A,Open,Open,2021-06-12 09:40:37,318,BROOKLYN,40.64330178214122,-73.90123833486797,"(40.64330178214122, -73.90123833486797)",Graffiti
45442686,2020,1,21,2020-01-21 12:28:26,,,833,794,Graffiti,Graffiti,Comercial,11207,464 NEW LOTS AVENUE,BROOKLYN,N/A,Open,Open,2020-02-29 15:53:21,305,BROOKLYN,40.66297215031561,-73.89048956938328,"(40.66297215031561, -73.89048956938328)",Graffiti
45443025,2020,1,21,2020-01-21 13:31:38,,,833,794,Graffiti,Graffiti,Mixed Use,11207,494 NEW LOTS AVENUE,BROOKLYN,N/A,Open,Open,2020-02-29 15:53:21,305,BROOKLYN,40.66334738557789,-73.88965271557224,"(40.66334738557789, -73.88965271557224)",Graffiti
45443024,2020,1,21,2020-01-21 13:35:33,,,833,38,Graffiti,Graffiti,Mixed Use,11249,17 KENT AVENUE,BROOKLYN,N/A,Open,Open,2022-03-27 11:56:38,301,BROOKLYN,40.72348672360743,-73.9583055437466,"(40.72348672360743, -73.9583055437466)",Graffiti
45443027,2020,1,21,2020-01-21 10:25:43,,,834,794,Graffiti,Graffiti,Mixed Use,11226,2728 CHURCH AVENUE,BROOKLYN,N/A,Open,Open,2020-02-29 15:53:21,317,BROOKLYN,40.65067650759351,-73.95208766550496,"(40.65067650759351, -73.95208766550496)",Graffiti
45443081,2020,1,21,2020-01-21 15:57:49,,,833,794,Graffiti,Graffiti,Mixed Use,10027,270 ST NICHOLAS AVENUE,NEW YORK,N/A,Open,Open,2020-02-29 15:53:21,110,MANHATTAN,40.80972720648371,-73.95303521606323,"(40.80972720648371, -73.95303521606323)",Graffiti
45443082,2020,1,21,2020-01-21 13:26:30,,,833,794,Graffiti,Graffiti,Mixed Use,11208,3442 FULTON STREET,BROOKLYN,N/A,Open,Open,2020-02-29 15:53:21,305,BROOKLYN,40.684685042291136,-73.86852448710306,"(40.684685042291136, -73.86852448710306)",Graffiti
45443083,2020,1,21,2020-01-21 13:19:44,,,833,794,Graffiti,Graffiti,Mixed Use,11207,2897 FULTON STREET,BROOKLYN,N/A,Open,Open,2020-02-29 15:53:21,305,BROOKLYN,40.67896334273914,-73.88775932218141,"(40.67896334273914, -73.88775932218141)",Graffiti
45443087,2020,1,21,2020-01-21 11:31:03,,,834,794,Graffiti,Graffiti,Mixed Use,11208,3143 FULTON STREET,BROOKLYN,N/A,Open,Open,2020-02-29 15:53:21,305,BROOKLYN,40.681767689595176,-73.87883827682239,"(40.681767689595176, -73.87883827682239)",Graffiti
45443088,2020,1,21,2020-01-21 10:50:45,,,834,794,Graffiti,Graffiti,Mixed Use,11212,9521 CHURCH AVENUE,BROOKLYN,N/A,Open,Open,2020-02-29 15:53:21,317,BROOKLYN,40.655305533424006,-73.91608001241069,"(40.655305533424006, -73.91608001241069)",Graffiti
45443089,2020,1,21,2020-01-21 10:13:30,,,834,794,Graffiti,Graffiti,Mixed Use,11206,582 BUSHWICK AVENUE,BROOKLYN,N/A,Open,Open,2020-02-29 15:53:21,304,BROOKLYN,40.69885269766639,-73.93507415581912,"(40.69885269766639, -73.93507415581912)",Graffiti
45443092,2020,1,21,2020-01-21 09:24:15,,,834,794,Graffiti,Graffiti,Mixed Use,11207,2737 FULTON STREET,BROOKLYN,N/A,Open,Open,2020-02-29 15:53:21,305,BROOKLYN,40.67774204898515,-73.893677594789,"(40.67774204898515, -73.893677594789)",Graffiti
45443107,2020,1,21,2020-01-21 09:57:44,,,834,794,Graffiti,Graffiti,Mixed Use,11237,120 WYCKOFF AVENUE,BROOKLYN,N/A,Open,Open,2020-02-29 15:53:21,304,BROOKLYN,40.70364801709268,-73.91818314725555,"(40.70364801709268, -73.91818314725555)",Graffiti
45443108,2020,1,21,2020-01-21 09:48:51,,,834,794,Graffiti,Graffiti,Mixed Use,11237,279 WYCKOFF AVENUE,BROOKLYN,N/A,Open,Open,2020-02-29 15:53:21,304,BROOKLYN,40.700847628052905,-73.91343682414951,"(40.700847628052905, -73.91343682414951)",Graffiti
45443109,2020,1,21,2020-01-21 09:01:46,,,834,794,Graffiti,Graffiti,Mixed Use,11217,347 BERGEN STREET,BROOKLYN,N/A,Open,Open,2020-02-29 15:53:21,302,BROOKLYN,40.682688871958135,-73.98009394712966,"(40.682688871958135, -73.98009394712966)",Graffiti
45443106,2020,1,21,2020-01-21 13:24:45,,,833,38,Graffiti,Graffiti,Mixed Use,11208,3419 FULTON STREET,BROOKLYN,N/A,Open,Open,2022-03-27 11:56:38,305,BROOKLYN,40.68445820786661,-73.86938667644213,"(40.68445820786661, -73.86938667644213)",Graffiti
45443110,2020,1,21,2020-01-21 09:00:10,,,834,794,Graffiti,Graffiti,Mixed Use,11217,76 4 AVENUE,BROOKLYN,N/A,Open,Open,2020-02-29 15:53:21,302,BROOKLYN,40.68225239910331,-73.97978400508251,"(40.68225239910331, -73.97978400508251)",Graffiti
45443787,2020,1,21,2020-01-21 11:41:05,,,834,794,Graffiti,Graffiti,Comercial,11208,3432 ATLANTIC AVENUE,BROOKLYN,N/A,Open,Open,2020-02-29 15:53:21,305,BROOKLYN,40.68209576167355,-73.870097979216,"(40.68209576167355, -73.870097979216)",Graffiti
45443144,2020,1,21,2020-01-21 12:43:24,,,833,794,Graffiti,Graffiti,Mixed Use,11208,1124 LIBERTY AVENUE,BROOKLYN,N/A,Open,Open,2020-02-29 15:53:21,305,BROOKLYN,40.67859350623655,-73.86775775188777,"(40.67859350623655, -73.86775775188777)",Graffiti
45443145,2020,1,21,2020-01-21 12:30:08,,,833,794,Graffiti,Graffiti,Mixed Use,11207,524 NEW LOTS AVENUE,BROOKLYN,N/A,Open,Open,2020-02-29 15:53:21,305,BROOKLYN,40.66373357642033,-73.88879781160426,"(40.66373357642033, -73.88879781160426)",Graffiti
45443146,2020,1,21,2020-01-21 10:11:58,,,834,794,Graffiti,Graffiti,Mixed Use,11206,461 BUSHWICK AVENUE,BROOKLYN,N/A,Open,Open,2020-02-29 15:53:21,304,BROOKLYN,40.701738461150484,-73.9368962581726,"(40.701738461150484, -73.9368962581726)",Graffiti
45443147,2020,1,21,2020-01-21 09:48:10,,,834,794,Graffiti,Graffiti,Mixed Use,11212,439 EAST   98 STREET,BROOKLYN,N/A,Open,Open,2020-02-29 15:53:21,316,BROOKLYN,40.65779691934861,-73.91488750150252,"(40.65779691934861, -73.91488750150252)",Graffiti
45443284,2020,1,21,2020-01-21 11:37:49,,,834,794,Graffiti,Graffiti,Residential,11208,3482 FULTON STREET,BROOKLYN,N/A,Open,Open,2020-02-29 15:53:21,305,BROOKLYN,40.685081485057914,-73.86717519262837,"(40.685081485057914, -73.86717519262837)",Graffiti
45443285,2020,1,21,2020-01-21 09:53:20,,,834,794,Graffiti,Graffiti,Residential,11203,795 LINDEN BOULEVARD,BROOKLYN,N/A,Open,Open,2020-02-29 15:53:21,317,BROOKLYN,40.65393880052068,-73.928519009449,"(40.65393880052068, -73.928519009449)",Graffiti
45443305,2020,1,21,2020-01-21 09:56:45,,,834,,Graffiti,Graffiti,,11203,928 LINDEN BOULEVARD,BROOKLYN,N/A,Open,Open,,317,BROOKLYN,40.65424288797152,-73.92335057669737,"(40.65424288797152, -73.92335057669737)",Graffiti
45443299,2020,1,21,2020-01-21 13:21:34,,,833,326,Graffiti,Graffiti,,11249,356 BEDFORD AVENUE,BROOKLYN,N/A,Open,Open,2021-06-12 09:40:37,301,BROOKLYN,40.71216337947488,-73.96278905086935,"(40.71216337947488, -73.96278905086935)",Graffiti
45443351,2020,1,21,2020-01-21 10:00:54,,,834,794,Graffiti,Graffiti,Residential,11226,2015 BEDFORD AVENUE,BROOKLYN,N/A,Open,Open,2020-02-29 15:53:21,309,BROOKLYN,40.65554469961326,-73.95634055139358,"(40.65554469961326, -73.95634055139358)",Graffiti
45443350,2020,1,21,2020-01-21 10:02:56,,,834,326,Graffiti,Graffiti,Residential,11237,77 WYCKOFF AVENUE,BROOKLYN,N/A,Open,Open,2021-06-12 09:40:37,304,BROOKLYN,40.705324181613264,-73.92083925858425,"(40.705324181613264, -73.92083925858425)",Graffiti
45443700,2020,1,21,2020-01-21 09:47:10,,,834,-78,Graffiti,Graffiti,Comercial,11237,341 IRVING AVENUE,BROOKLYN,N/A,Open,Open,2022-07-21 02:22:26,304,BROOKLYN,40.698184795010235,-73.9128957218568,"(40.698184795010235, -73.9128957218568)",Graffiti
45443701,2020,1,21,2020-01-21 09:19:10,,,834,794,Graffiti,Graffiti,Comercial,11207,2761 FULTON STREET,BROOKLYN,N/A,Open,Open,2020-02-29 15:53:21,305,BROOKLYN,40.67787844781208,-73.89277245747226,"(40.67787844781208, -73.89277245747226)",Graffiti
45443786,2020,1,21,2020-01-21 12:26:40,,,833,794,Graffiti,Graffiti,Comercial,11207,370 NEW LOTS AVENUE,BROOKLYN,N/A,Open,Open,2020-02-29 15:53:21,305,BROOKLYN,40.66167937801232,-73.89343286819668,"(40.66167937801232, -73.89343286819668)",Graffiti
45443788,2020,1,21,2020-01-21 10:22:35,,,834,794,Graffiti,Graffiti,Comercial,11206,77 EVERGREEN AVENUE,BROOKLYN,N/A,Open,Open,2020-02-29 15:53:21,304,BROOKLYN,40.700470899946374,-73.93296278995787,"(40.700470899946374, -73.93296278995787)",Graffiti
45443792,2020,1,21,2020-01-21 12:44:43,,,833,794,Graffiti,Graffiti,Comercial,11236,9125 L AVENUE,BROOKLYN,N/A,Open,Open,2020-02-29 15:53:21,318,BROOKLYN,40.63598539588695,-73.89947648948767,"(40.63598539588695, -73.89947648948767)",Graffiti
45445659,2020,1,22,2020-01-22 06:20:50,,,833,794,Graffiti,Graffiti,Comercial,11213,1529 DEAN STREET,BROOKLYN,N/A,Open,Open,2020-02-29 15:53:21,308,BROOKLYN,40.676195804449115,-73.93722686577432,"(40.676195804449115, -73.93722686577432)",Graffiti
45471041,2020,1,26,2020-01-26 00:20:25,,,829,794,Graffiti,Graffiti,Residential,10027,113 MORNINGSIDE AVENUE,NEW YORK,N/A,Open,Open,2020-02-29 15:53:21,109,MANHATTAN,40.81047990683155,-73.95464944515648,"(40.81047990683155, -73.95464944515648)",Graffiti
45446706,2020,1,22,2020-01-22 20:48:05,,,832,794,Graffiti,Graffiti,Mixed Use,10002,150 EAST BROADWAY,NEW YORK,N/A,Open,Open,2020-02-29 15:53:21,103,MANHATTAN,40.71400527531444,-73.9908485087216,"(40.71400527531444, -73.9908485087216)",Graffiti
45448644,2020,1,22,2020-01-22 09:02:12,,,833,794,Graffiti,Graffiti,Comercial,11106,36-24 34 STREET,Astoria,N/A,Open,Open,2020-02-29 15:53:21,401,QUEENS,40.75489906675612,-73.9278187249633,"(40.75489906675612, -73.9278187249633)",Graffiti
45462634,2020,1,24,2020-01-24 11:34:05,,,831,794,Graffiti,Graffiti,,10009,533 EAST   12 STREET,NEW YORK,N/A,Open,Open,2020-02-29 15:53:21,103,MANHATTAN,40.728724117703926,-73.98043738836712,"(40.728724117703926, -73.98043738836712)",Graffiti
45464507,2020,1,24,2020-01-24 10:53:57,,,831,794,Graffiti,Graffiti,Residential,11211,350 LEONARD STREET,BROOKLYN,N/A,Open,Open,2020-02-29 15:53:21,301,BROOKLYN,40.71656303393082,-73.94809386331355,"(40.71656303393082, -73.94809386331355)",Graffiti
45465766,2020,1,24,2020-01-24 16:09:50,,,830,794,Graffiti,Graffiti,Comercial,10011,434 6 AVENUE,NEW YORK,N/A,Open,Open,2020-02-29 15:53:21,102,MANHATTAN,40.73458308038114,-73.99884894471083,"(40.73458308038114, -73.99884894471083)",Graffiti
45467383,2020,1,24,2020-01-24 19:01:03,,,830,794,Graffiti,Graffiti,Mixed Use,10462,2313 WESTCHESTER AVENUE,BRONX,N/A,Open,Open,2020-02-29 15:53:21,210,BRONX,40.83584568226252,-73.84782575455355,"(40.83584568226252, -73.84782575455355)",Graffiti
45892893,2020,3,25,2020-03-25 15:11:36,,,769,326,Graffiti,Graffiti,Residential,11216,1084 BEDFORD AVENUE,BROOKLYN,N/A,Open,Open,2021-06-12 09:40:37,303,BROOKLYN,40.68769366301644,-73.95478343638389,"(40.68769366301644, -73.95478343638389)",Graffiti
45471448,2020,1,25,2020-01-25 10:35:55,,,830,794,Graffiti,Graffiti,Mixed Use,11220,6316 5 AVENUE,BROOKLYN,N/A,Open,Open,2020-02-29 15:53:21,307,BROOKLYN,40.63763635733954,-74.01809467571341,"(40.63763635733954, -74.01809467571341)",Graffiti
45475721,2020,1,26,2020-01-26 17:05:16,,,828,794,Graffiti,Graffiti,Mixed Use,11220,6753 5 AVENUE,BROOKLYN,N/A,Open,Open,2020-02-29 15:53:21,310,BROOKLYN,40.63452609744372,-74.02056903409776,"(40.63452609744372, -74.02056903409776)",Graffiti
45475939,2020,1,26,2020-01-26 17:28:15,,,828,794,Graffiti,Graffiti,Comercial,10455,420 JACKSON AVENUE,BRONX,N/A,Open,Open,2020-02-29 15:53:21,201,BRONX,40.809926908099214,-73.91025330810841,"(40.809926908099214, -73.91025330810841)",Graffiti
45475943,2020,1,26,2020-01-26 23:55:37,,,828,794,Graffiti,Graffiti,Comercial,11213,170 BUFFALO AVENUE,BROOKLYN,N/A,Open,Open,2020-02-29 15:53:21,308,BROOKLYN,40.67333400705715,-73.92513835179409,"(40.67333400705715, -73.92513835179409)",Graffiti
45502743,2020,1,29,2020-01-29 11:30:53,,,826,794,Graffiti,Graffiti,Mixed Use,11368,102-20 35 AVENUE,Corona,N/A,Open,Open,2020-02-29 15:53:21,403,QUEENS,40.754593694043514,-73.86576246423398,"(40.754593694043514, -73.86576246423398)",Graffiti
45502745,2020,1,29,2020-01-29 10:28:24,,,826,794,Graffiti,Graffiti,Mixed Use,10002,133 ELDRIDGE STREET,NEW YORK,N/A,Open,Open,2020-02-29 15:53:21,103,MANHATTAN,40.718948643884126,-73.99156932542334,"(40.718948643884126, -73.99156932542334)",Graffiti
45482994,2020,1,27,2020-01-27 16:47:48,,,827,794,Graffiti,Graffiti,Comercial,10033,4365 BROADWAY,NEW YORK,N/A,Open,Open,2020-02-29 15:53:21,112,MANHATTAN,40.853688165778514,-73.93395786781569,"(40.853688165778514, -73.93395786781569)",Graffiti
45483711,2020,1,27,2020-01-27 14:35:46,,,827,794,Graffiti,Graffiti,Mixed Use,10012,88 BLEECKER STREET,NEW YORK,N/A,Open,Open,2020-02-29 15:53:21,102,MANHATTAN,40.72682360900715,-73.99646064652228,"(40.72682360900715, -73.99646064652228)",Graffiti
45484755,2020,1,27,2020-01-27 07:40:43,,,828,794,Graffiti,Graffiti,Comercial,11222,384 MCGUINNESS BOULEVARD,BROOKLYN,N/A,Open,Open,2020-02-29 15:53:21,301,BROOKLYN,40.73594566181516,-73.95248822674847,"(40.73594566181516, -73.95248822674847)",Graffiti
45485666,2020,1,27,2020-01-27 20:22:28,,,827,326,Graffiti,Graffiti,Residential,11210,2347 FOSTER AVENUE,BROOKLYN,N/A,Open,Open,2021-06-12 09:40:37,314,BROOKLYN,40.63819696703416,-73.95454313913574,"(40.63819696703416, -73.95454313913574)",Graffiti
45485741,2020,1,27,2020-01-27 11:35:59,,,828,326,Graffiti,Graffiti,Comercial,11220,5514 3 AVENUE,BROOKLYN,N/A,Open,Open,2021-06-12 09:40:37,307,BROOKLYN,40.64472895703607,-74.01762094181748,"(40.64472895703607, -74.01762094181748)",Graffiti
45485819,2020,1,27,2020-01-27 09:41:50,,,828,794,Graffiti,Graffiti,Mixed Use,11220,6224 5 AVENUE,BROOKLYN,N/A,Open,Open,2020-02-29 15:53:21,307,BROOKLYN,40.63816618601753,-74.01754714662641,"(40.63816618601753, -74.01754714662641)",Graffiti
45486864,2020,1,27,2020-01-27 14:36:44,,,827,,Graffiti,Graffiti,,10001,66 WEST   35 STREET,NEW YORK,N/A,Open,Open,,105,MANHATTAN,40.750010510629004,-73.98626353920513,"(40.750010510629004, -73.98626353920513)",Graffiti
45486865,2020,1,27,2020-01-27 10:00:27,,,828,794,Graffiti,Graffiti,,10463,230 WEST  230 STREET,BRONX,N/A,Open,Open,2020-02-29 15:53:21,208,BRONX,40.87905424757459,-73.90913300643808,"(40.87905424757459, -73.90913300643808)",Graffiti
45488390,2020,1,28,2020-01-28 03:39:40,,,827,794,Graffiti,Graffiti,Residential,11223,2292 OCEAN PARKWAY,BROOKLYN,N/A,Open,Open,2020-02-29 15:53:21,315,BROOKLYN,40.59358940899362,-73.96469508807704,"(40.59358940899362, -73.96469508807704)",Graffiti
45489321,2020,1,28,2020-01-28 14:28:49,,,826,794,Graffiti,Graffiti,Residential,11208,1 KIELY PLACE,BROOKLYN,N/A,Open,Open,2020-02-29 15:53:21,305,BROOKLYN,40.68607316422469,-73.87275484514954,"(40.68607316422469, -73.87275484514954)",Graffiti
45989396,2020,4,12,2020-04-12 09:38:42,,,752,38,Graffiti,Graffiti,Mixed Use,11418,123-06 JAMAICA AVENUE,RICHMOND HILL,N/A,Open,Open,2022-03-27 10:36:50,409,QUEENS,40.7006872248181,-73.82712643505174,"(40.7006872248181, -73.82712643505174)",Graffiti
45491406,2020,1,28,2020-01-28 09:31:23,,,827,794,Graffiti,Graffiti,Residential,11237,270 HIMROD STREET,BROOKLYN,N/A,Open,Open,2020-02-29 15:53:21,304,BROOKLYN,40.70064328936735,-73.91930484618794,"(40.70064328936735, -73.91930484618794)",Graffiti
45491433,2020,1,28,2020-01-28 09:38:06,,,827,794,Graffiti,Graffiti,Mixed Use,11211,449 GRAHAM AVENUE,BROOKLYN,N/A,Open,Open,2020-02-29 15:53:21,301,BROOKLYN,40.718672354766376,-73.94507638145271,"(40.718672354766376, -73.94507638145271)",Graffiti
45491437,2020,1,28,2020-01-28 12:19:33,,,826,794,Graffiti,Graffiti,Mixed Use,10018,485 9 AVENUE,NEW YORK,N/A,Open,Open,2020-02-29 15:53:21,104,MANHATTAN,40.7553881738146,-73.99486375152493,"(40.7553881738146, -73.99486375152493)",Graffiti
45493318,2020,1,28,2020-01-28 16:03:29,,,826,794,Graffiti,Graffiti,Comercial,11206,186 SCHOLES STREET,BROOKLYN,N/A,Open,Open,2020-02-29 15:53:21,301,BROOKLYN,40.708937785491614,-73.9417335584355,"(40.708937785491614, -73.9417335584355)",Graffiti
45494670,2020,1,28,2020-01-28 19:11:40,,,826,326,Graffiti,Graffiti,Residential,11361,204-15 38 AVENUE,Bayside,N/A,Open,Open,2021-06-12 09:40:37,411,QUEENS,40.763707001378584,-73.78188951923681,"(40.763707001378584, -73.78188951923681)",Graffiti
45495442,2020,1,28,2020-01-28 10:30:53,,,827,326,Graffiti,Graffiti,Comercial,10306,4255 AMBOY ROAD,STATEN ISLAND,N/A,Open,Open,2021-06-12 09:40:37,503,STATEN ISLAND,40.54696404406227,-74.1582845707278,"(40.54696404406227, -74.1582845707278)",Graffiti
45988721,2020,4,12,2020-04-12 20:08:06,,,751,38,Graffiti,Graffiti,Residential,11103,43-12 NEWTOWN ROAD,ASTORIA,N/A,Open,Open,2022-03-27 10:36:50,401,QUEENS,40.759819550508425,-73.91454777318688,"(40.759819550508425, -73.91454777318688)",Graffiti
45497615,2020,1,29,2020-01-29 09:30:26,,,826,794,Graffiti,Graffiti,Residential,11372,34-31 81 STREET,Jackson Heights,N/A,Open,Open,2020-02-29 15:53:21,403,QUEENS,40.75289710821208,-73.88581926195698,"(40.75289710821208, -73.88581926195698)",Graffiti
45497627,2020,1,29,2020-01-29 22:51:11,,,825,794,Graffiti,Graffiti,,11217,57 ST FELIX STREET,BROOKLYN,N/A,Open,Open,2020-02-29 15:53:21,302,BROOKLYN,40.6881944279705,-73.9776151096003,"(40.6881944279705, -73.9776151096003)",Graffiti
45497659,2020,1,29,2020-01-29 19:40:31,,,825,794,Graffiti,Graffiti,Mixed Use,10002,62 ORCHARD STREET,NEW YORK,N/A,Open,Open,2020-02-29 15:53:21,103,MANHATTAN,40.71695314607578,-73.99081924500813,"(40.71695314607578, -73.99081924500813)",Graffiti
